courier_id,wave_index,tracking_id,weather_grade,pick_lng,pick_lat,deliver_lng,deliver_lat,create_time,confirm_time,assigned_time,promise_deliver_time,estimate_pick_time,aoi_id,shop_id
100002543,0,2100075937888371972,正常天气,121.62723,39.134409,121.620934,39.130341,1582934042,1582934043,1582940329,1582942500,1582935543,d814f4e3dcf9e6f473e213232b9ba115,a29df4ba343fafd7cf9bc6b0bd7322a7
100002543,0,2100075942852035844,正常天气,121.62723,39.134409,121.662374,39.133881,1582941051,1582941052,1582941109,1582945191,1582942252,acb2f7f74d0dcf8bd58658d59009c9ba,a29df4ba343fafd7cf9bc6b0bd7322a7
100002543,0,2100075945276605765,正常天气,121.630624,39.134761,121.670644,39.130681,1582941995,1582941996,1582942009,1582944815,1582943256,4ff119eb6943edf847ea577273786b5d,d97fb99890e2ace6955f21909cdd62dc
100002652,0,2100075952104506966,正常天气,121.568095,39.149675,121.563984,39.132661,1582945615,1582945617,1582945630,1582948315,1582946517,83dee8ebdfe9e1516aeb4e2d5e9954fd,24e38e749f48329a1d80cee8a5aa29d3
100002652,0,2100075952535209012,极恶劣天气,121.569456,39.146255,121.563714,39.130391,1582945795,1582945795,1582945810,1582948315,1582946695,05d8038e4278dbf776e48d6e234de7a7,9ae3b8a260ff69a300747814dedc3ddb
100002652,2,2100075968170361920,轻微恶劣天气,121.566356,39.149935,121.598134,39.144641,1582951666,1582951688,1582951749,1582954966,1582952708,84825ca4f291979ac1a93d137f7260a4,adfe4aafa9da1cc27b7762cc082be000
100002652,2,2100075965806609538,轻微恶劣天气,121.567455,39.150495,121.595904,39.143661,1582951933,1582951936,1582951989,1582955053,1582952596,1b68bcbb12aa98caea997d0320bd1409,ecd94a696196fe0d55d751544342da9d
100002652,2,2100075968254641374,轻微恶劣天气,121.566509,39.150192,121.567054,39.150521,1582952011,1582952014,1582952050,1582954351,1582952914,1a9f9591a28c27396c926ae04999d4fb,cda390ce137ae54344ee9027d9afdc52
100002652,2,2100075969531020945,轻微恶劣天气,121.565643,39.144906,121.599154,39.143791,1582952501,1582952508,1582952529,1582955561,1582953108,84825ca4f291979ac1a93d137f7260a4,72def4f5fe7b2f6d7e7354ff7c443cd6
100002652,2,2100075967730845329,轻微恶劣天气,121.565643,39.144906,121.597314,39.148421,1582952631,1582952637,1582952650,1582955751,1582953237,b06ebdd4406e34b0fd0edf5462fb4a48,72def4f5fe7b2f6d7e7354ff7c443cd6
100002652,4,2100076003631400943,轻微恶劣天气,121.569877,39.149669,121.586124,39.153621,1582972787,1582972801,1582972810,1582975967,1582973881,d5c8bcaf5c4d9508060f27a966e4a0b2,9ca88bfd0f7589888a650f2669154558
100002652,4,2100076004048864257,轻微恶劣天气,121.566157,39.149533,121.585104,39.156791,1582973302,1582973304,1582973350,1582977202,1582974024,e7204f196577d8471978d13200eac35e,87d9b76b8676a17ae303cdba3b467f7b
100002652,4,2100076003162326648,轻微恶劣天气,121.568256,39.149578,121.583254,39.149641,1582973438,1582973445,1582973470,1582976258,1582974105,c37e87b5938c4e0a48104a9344302582,075822e67cb055f83bebd1cd7c46cd89
100002652,4,2100076004361995328,轻微恶劣天气,121.566356,39.149935,121.575734,39.150211,1582973691,1582973692,1582973709,1582976451,1582974652,35936504a37d53e03abdfbc7318d9ec7,adfe4aafa9da1cc27b7762cc082be000
100006950,0,2100075948273960056,轻微恶劣天气,121.411576,39.042499,121.421924,39.029881,1582944314,1582944320,1582945779,1582948800,1582945820,8ef2b6a3f26b5a5e3e3706857792d753,5c6302b14a69aeb53bda773ccc61156a
100006950,0,2100075951460123725,轻微恶劣天气,121.412912,39.041975,121.417584,39.030681,1582945371,1582945673,1582945719,1582949211,1582947173,177e5c1aa5ac21858199c2956a4d3ca0,5f2e3127d62dac316ee17fb971a2cc90
100006950,0,2100075952640296499,轻微恶劣天气,121.416954,39.043531,121.411784,39.035501,1582946187,1582946187,1582946199,1582948887,1582947027,64408b949725b25602b8b899485287fc,49ecd318be17693fbc827ace9ab69909
100006950,0,2100075953516087198,轻微恶劣天气,121.413182,39.042526,121.419114,39.031731,1582946388,1582946388,1582946440,1582949988,1582947288,cfac200fc34542f38a869fdc50118a2b,d80f6661144fd88fbbf67e95a2d5b6aa
100006950,0,2100075953697949362,轻微恶劣天气,121.414813,39.041777,121.417034,39.030571,1582947029,1582947029,1582947040,1582949909,1582947629,177e5c1aa5ac21858199c2956a4d3ca0,b2c5b3eddbd0579791221ae9ed4bc663
100006950,0,2100075956794623720,正常天气,121.411875,39.035209,121.416514,39.030851,1582947351,1582947352,1582947400,1582949871,1582948072,177e5c1aa5ac21858199c2956a4d3ca0,8d7d638726765af9bef180502f4f9435
100006950,0,2100075960698603182,正常天气,121.413234,39.031494,121.417374,39.030901,1582948822,1582948824,1582949020,1582951282,1582949724,177e5c1aa5ac21858199c2956a4d3ca0,63003a1907645a44a03ecaac49f1ef3c
100006950,1,2100075960875680877,轻微恶劣天气,121.41113,39.043466,121.429854,39.058851,1582949708,1582949709,1582949739,1582953368,1582950969,cce9d551176b6af7fcbbbefe2bcbc5ad,9e7b78eda29b74a1a9d2a38b9ce3f6b9
100006950,1,2100075963710965490,轻微恶劣天气,121.416363,39.047001,121.424044,39.060191,1582950505,1582950506,1582950519,1582953385,1582951766,411a8912859c1c85e4da43f3bf0dc399,6df2fea4ea1134674db7a2037cba402b
100006950,2,2100075969676183260,正常天气,121.412782,39.042032,121.417264,39.045881,1582953067,1582953069,1582953099,1582955047,1582954329,569b5253e7f6482361f11c3580c257b8,e9179c85f8db6941fbd815ac6ba8fcac
100006950,2,2100075969891632412,正常天气,121.411084,39.042441,121.418714,39.053141,1582953160,1582953165,1582953219,1582955980,1582953885,dc3ba09fdbbf6649b79338d018f22243,30261ad16a7d7081cf3e296fd22b4872
100006950,2,2100075971421766673,正常天气,121.411774,39.042411,121.421244,39.054011,1582953437,1582953438,1582953459,1582956077,1582954338,dc3ba09fdbbf6649b79338d018f22243,5f77e2313b03912e521abf8dbad7f0b7
100006950,2,2100075970672658397,正常天气,121.412502,39.042265,121.407614,39.062571,1582954028,1582954029,1582954211,1582956788,1582954809,d5036c64412973d610202be8dce2b82a,13664c2ec7fc6d439d847bf221adcaae
100006950,5,2100075984061400271,正常天气,121.405576,39.035223,121.399694,39.023131,1582963773,1582963774,1582963779,1582966114,1582964854,6bd57657f412bec5b3b4e689723d2cf8,ca53b7c28ff10b68d470243dd24b0d05
100006950,5,2100075987825395286,正常天气,121.404602,39.03063,121.424444,39.038031,1582964694,1582964715,1582964799,1582967094,1582965795,f38c0835ed9fd764432e27be5bbe8470,33eedcd7f3381133215cf2ae933afcef
100006950,5,2100075987355272302,正常天气,121.412404,39.042321,121.418934,39.036351,1582965324,1582965329,1582965339,1582968324,1582966349,fbdfb3c011e847db34f2cd67d3de1e2d,398efda950050f3a33a20d71950b407a
100006950,5,2100075986785732335,正常天气,121.412077,39.042021,121.421264,39.031991,1582965472,1582965473,1582965519,1582968772,1582966733,415de96baf4382ae70b049e445185cbd,a5f58cbe918e7ed240a9dbd77f9305e6
100006950,5,2100075988408665930,正常天气,121.411257,39.042865,121.417374,39.030901,1582966097,1582966100,1582966119,1582969457,1582967120,177e5c1aa5ac21858199c2956a4d3ca0,a5a834b5cafd03031f5bb4f52fbdca05
100006950,5,2100075990174073970,正常天气,121.412074,39.042021,121.417374,39.030901,1582966321,1582966322,1582966359,1582969861,1582967582,177e5c1aa5ac21858199c2956a4d3ca0,b8bfa9ad4e0a377b0513a69dd3efb6e0
100006950,7,2100076005368366610,正常天气,121.411974,39.042431,121.401914,39.041561,1582974065,1582974068,1582974099,1582976225,1582975148,bbb5a57464e4db46e1f235ce0773a83b,62a773f8f4a4017a5a9e9652b2989aa0
100006950,7,2100076005465655114,正常天气,121.411257,39.042865,121.403484,39.051351,1582974765,1582974767,1582974999,1582977645,1582975967,850599c29a0dd282fd0c5d2c3959d5a1,a5a834b5cafd03031f5bb4f52fbdca05
100006950,7,2100076006709593202,轻微恶劣天气,121.412074,39.042021,121.428154,39.038891,1582975418,1582975419,1582975478,1582979018,1582976319,619567be776f3cf9764522c693bc1946,b8bfa9ad4e0a377b0513a69dd3efb6e0
100006950,7,2100076009433368090,轻微恶劣天气,121.41148,39.042198,121.395664,39.056591,1582975936,1582975944,1582975958,1582979296,1582976664,0c303252cc89ebfa0a66b5e04e31631c,241409fa29a3f67e094e5521f6b94e49
100023698,0,2100075970876737281,正常天气,121.378359,39.124936,121.384754,39.126121,1582953995,1582953999,1582954618,1582956035,1582954719,7ae221d51efe58235fcc0e3308a6205f,92ffa58e6c382a69b8b647bf9648f6bd
100023698,0,2100075970734524161,正常天气,121.378359,39.124936,121.393854,39.118451,1582954275,1582954279,1582954624,1582956615,1582955179,717728fd4167e2051cf12e88ad1d466d,92ffa58e6c382a69b8b647bf9648f6bd
100023698,1,2100075973638882309,正常天气,121.378814,39.122571,121.379224,39.123181,1582955799,1582955806,1582955865,1582957599,1582956706,924020eb90cc94ff826a254074d61ccc,af1d92c19055d9e810b7bc81701e7845
100023698,1,2100075974838682756,正常天气,121.378204,39.123002,121.371124,39.132231,1582956707,1582956707,1582956765,1582959347,1582957427,34ce2d8fb4291325936e9f6d0ffbb415,5cf9f228dafd3dfc28d853ef168fbaa1
100023698,1,2100075976441202085,正常天气,121.373504,39.135871,121.365634,39.132041,1582957185,1582957188,1582957365,1582958985,1582957788,60ab141ec211c23b6b8e92d5ecc0af09,f6f667fc164958c4f22e25e2ed011339
100023698,1,2100075977732883504,正常天气,121.368059,39.124997,121.352544,39.146381,1582958212,1582958213,1582958265,1582960972,1582959113,ce261374e378b9588a14b6689d0befed,504774191c09a74fb5c2abd48bd672bf
100023698,1,2100075978137273537,正常天气,121.377928,39.122797,121.342664,39.143971,1582958449,1582958450,1582958504,1582961869,1582959890,90c70a60382b076cc9fee71a11a07fd8,2a82d508abecc7cb267ead428c42a659
100023698,1,2100075978433758930,正常天气,121.365185,39.121072,121.342554,39.144161,1582958575,1582958576,1582958625,1582962655,1582959656,90c70a60382b076cc9fee71a11a07fd8,23c01ec88be42215a4e31f9ec04ee291
100023698,1,2100075976569456053,正常天气,121.376732,39.135899,121.355804,39.146721,1582958886,1582958887,1582958925,1582961586,1582959607,a219c8c4b5129d1394203ba74537d00b,478c81b3545dbcb16aa5bfaba7a04ae1
100023698,2,2100075987601458597,正常天气,121.373504,39.135871,121.375654,39.142521,1582965275,1582965276,1582965405,1582967735,1582966176,0b863db3fba6f023a8c82b0797576221,f6f667fc164958c4f22e25e2ed011339
100023698,2,2100075987691308453,正常天气,121.373504,39.135871,121.374464,39.142761,1582965683,1582965690,1582965705,1582968023,1582966530,0b863db3fba6f023a8c82b0797576221,f6f667fc164958c4f22e25e2ed011339
100023698,2,2100075990732179013,正常天气,121.374269,39.135742,121.372894,39.137831,1582966189,1582966190,1582966427,1582968409,1582967270,bcda0f47b1d801d75b8f3f3edc364765,840f626ac9a52ccd4f2a74036ee5d23e
100023698,2,2100075993704465845,正常天气,121.376732,39.135899,121.397894,39.140141,1582967651,1582967652,1582967686,1582970771,1582968372,7f12e973da664d207ec88afcd48f7b53,478c81b3545dbcb16aa5bfaba7a04ae1
100023698,3,2100075995249051061,正常天气,121.376732,39.135899,121.371164,39.146111,1582968988,1582968990,1582969126,1582971688,1582969710,6a2986cf135b527c96547dd90c6919f2,478c81b3545dbcb16aa5bfaba7a04ae1
100023698,3,2100075995589641653,正常天气,121.376732,39.135899,121.362894,39.149381,1582969399,1582969401,1582969426,1582972459,1582970301,0e875d0d3db1b73e78e90b32f7bafac2,478c81b3545dbcb16aa5bfaba7a04ae1
100023698,3,2100075995970143257,正常天气,121.374011,39.135793,121.354074,39.146561,1582969876,1582969876,1582969906,1582973176,1582970836,ce261374e378b9588a14b6689d0befed,af62ecc30266ad244ea54e3af929539b
100023698,4,2100076000508282108,正常天气,121.376032,39.12767,121.378604,39.127171,1582971553,1582971571,1582971586,1582973833,1582973011,02fea5a2f8f3884eaf0ed626ac361628,f7c4cc4724a869ad5ce2e3819730d52e
100023698,4,2100076000108447141,正常天气,121.373504,39.135871,121.374474,39.126171,1582971640,1582971647,1582971705,1582973800,1582972427,a62ef555b3beded540f75fbefb1b7ab7,f6f667fc164958c4f22e25e2ed011339
100023698,4,2100076001861502031,正常天气,121.378224,39.12316,121.364284,39.110401,1582972207,1582972208,1582972306,1582975207,1582973048,b4b1f9331fcf0c5ab0c255c7e76a464c,633b1ec246689de0fb5abc198f09d67a
100023698,4,2100076002977515000,正常天气,121.378464,39.123372,121.371314,39.109731,1582972391,1582972394,1582972426,1582975211,1582973534,83f1e2a7c8af50f4f588cffe343644b0,886937d7f08614673b24e6bb23597c91
100023698,4,2100076002160150084,正常天气,121.378408,39.123088,121.377194,39.108991,1582972632,1582972633,1582972666,1582975272,1582973833,1b2384385410b4f488558d5b50f4030f,e3fd297e191047b90a6d92d77acadfe7
100023698,5,2100076006706775275,正常天气,121.378082,39.122922,121.358034,39.122211,1582975400,1582975404,1582975424,1582977560,1582976304,708dc9630c5bd61ca1143e3440f810b4,8ebf3c54b4ea0b97109fdc6e2c85b7c1
100023698,5,2100076010181658405,正常天气,121.36005,39.121052,121.376704,39.107781,1582976633,1582976661,1582976684,1582978913,1582977321,1b2384385410b4f488558d5b50f4030f,da8e8dac58293acc4c85c4aa92da4cbd
100038207,0,2100075944173208916,正常天气,121.427951,39.196997,121.422024,39.198451,1582942768,1582942770,1582942793,1582944568,1582944390,e503e0bea5a24b4085ca1dab7f9957fc,fb72c68710d95fcb53cbf9655e4e7aa6
100038207,0,2100075946280715604,正常天气,121.427951,39.196997,121.438984,39.188271,1582942812,1582942813,1582942853,1582945992,1582943953,c33e3d724834978aa4d87f0b671474bc,fb72c68710d95fcb53cbf9655e4e7aa6
100038207,0,2100075944463861076,正常天气,121.427951,39.196997,121.443664,39.190061,1582942876,1582942877,1582942913,1582946176,1582944137,682bcd223d93764cd15800487be65f03,fb72c68710d95fcb53cbf9655e4e7aa6
100038207,1,2100075952136357204,轻微恶劣天气,121.427951,39.196997,121.417114,39.199771,1582945847,1582945847,1582945854,1582948967,1582947467,3a30be93eb45566a90f4e95ee72a089a,fb72c68710d95fcb53cbf9655e4e7aa6
100038207,1,2100075953081943380,轻微恶劣天气,121.427951,39.196997,121.426404,39.195511,1582946016,1582946017,1582946033,1582948416,1582947637,aa505fddd04772eab66ca0558e0fc76b,fb72c68710d95fcb53cbf9655e4e7aa6
100038207,1,2100075952639182164,轻微恶劣天气,121.427951,39.196997,121.422434,39.193191,1582946183,1582946184,1582946213,1582948883,1582947804,0a9fd8959ee99e2d3e7ec183eccdab67,fb72c68710d95fcb53cbf9655e4e7aa6
100038207,4,2100075984005367124,正常天气,121.427951,39.196997,121.435934,39.210511,1582963164,1582963164,1582963433,1582965864,1582964424,7b680896848a7bcd86fbef749a604cc5,fb72c68710d95fcb53cbf9655e4e7aa6
100038207,4,2100075987233736020,正常天气,121.427951,39.196997,121.436164,39.186061,1582964728,1582964729,1582964873,1582967488,1582965929,c20734e525648357dc9395b3ed8971e2,fb72c68710d95fcb53cbf9655e4e7aa6
100038207,4,2100075990423864660,正常天气,121.427951,39.196997,121.429794,39.206771,1582966091,1582966092,1582966613,1582969031,1582967172,bf3f6b9e4f27fa85818623a0d623b688,fb72c68710d95fcb53cbf9655e4e7aa6
100038207,4,2100075990861514068,正常天气,121.427951,39.196997,121.448794,39.213771,1582966660,1582966660,1582966673,1582970320,1582967920,eefa9af186d5b211a50d4790a77ba47a,fb72c68710d95fcb53cbf9655e4e7aa6
100038207,5,2100075994615088468,正常天气,121.427951,39.196997,121.432844,39.229431,1582969093,1582969094,1582969193,1582973833,1582970474,0863d7db1a352be9000f267a570e4f0f,fb72c68710d95fcb53cbf9655e4e7aa6
100038207,5,2100075998517790185,正常天气,121.427787,39.197609,121.443914,39.210311,1582970613,1582970619,1582970633,1582974633,1582971699,988876c6ae399bcb0342bca21f471e0e,5fcbea2c5f4b90fbf93577bdbc5f31bc
100038207,5,2100075999934711124,正常天气,121.427951,39.196997,121.442504,39.229121,1582970661,1582970662,1582970693,1582974321,1582971802,ccbec4197e98ed1fdee7a153028bb5f5,fb72c68710d95fcb53cbf9655e4e7aa6
100069773,1,2100075956786333345,正常天气,121.556844,39.178741,121.554694,39.175001,1582946756,1582947341,1582947356,1582955756,1582948556,85aebfe93f9a68c11d462db8db3811af,4f0c5ad2934f0b4c88a8cec1d22d0e2c
100069773,1,2100075954974754465,正常天气,121.556844,39.178741,121.555984,39.175181,1582946858,1582947416,1582947477,1582955858,1582948838,84087185edec501d477b76574675f9b1,4f0c5ad2934f0b4c88a8cec1d22d0e2c
100069773,1,2100075957973878439,正常天气,121.554768,39.177161,121.561804,39.174751,1582947542,1582947545,1582947596,1582950062,1582948625,3f4f1f9ec928772ee5650c4a2064abe3,b7e543f12c958c934318f18f72c21038
100069773,2,2100075962151437527,正常天气,121.552844,39.179708,121.557304,39.175461,1582949627,1582949629,1582949635,1582951667,1582950709,84087185edec501d477b76574675f9b1,a54e1d219afba64ff473ded06a1396b2
100069773,2,2100075963064124636,正常天气,121.555195,39.176571,121.558554,39.176121,1582949938,1582949941,1582949995,1582951738,1582950661,7683d3f445d3e048fa913c8f94a654ed,cd9b65ad0006b84f01e2db4215eb13b6
100069773,3,2100075966917543332,正常天气,121.560229,39.177853,121.538614,39.179491,1582951709,1582951709,1582951735,1582954529,1582952609,dc855395f763eb70aea6a33b87a1e268,0f7f9f2fb2a5accd921eecf5325cbbab
100069773,3,2100075969496450503,正常天气,121.55168,39.176902,121.542464,39.178031,1582952239,1582952239,1582952275,1582954039,1582953139,dc855395f763eb70aea6a33b87a1e268,2a0c1bb2e4aeca4ea0db11d3c525b45d
100069773,4,2100075970542470864,正常天气,121.553067,39.175279,121.545174,39.170791,1582953234,1582953236,1582953294,1582955634,1582954136,fb542a52dcf53937450639ad7e769abd,bd8a52757b6a4524de5d8ff9aba882bd
100069773,4,2100075971129116431,正常天气,121.546281,39.17646,121.544924,39.169641,1582953403,1582953404,1582953414,1582955203,1582954124,3045e105e8b1443488a1824d9265f349,fe1c638c4d888928af19818cedbe1d57
100069773,6,2100076002313700633,正常天气,121.552564,39.172208,121.580654,39.167101,1582971734,1582971755,1582971775,1582975154,1582973195,07c9fb4301bfdddecdb97a727b0c7ed1,424d7225e85ba77f1ee81b9175238782
100069773,6,2100076002039399644,正常天气,121.555195,39.176571,121.580694,39.162391,1582971855,1582971858,1582971895,1582975095,1582972758,8cb4b2d22536caa60f5b7baa02b3f4d3,cd9b65ad0006b84f01e2db4215eb13b6
100069773,6,2100076002404828380,正常天气,121.555195,39.176571,121.559374,39.176801,1582971955,1582971957,1582972015,1582973815,1582972677,992379a854694e5deaff46759060e049,cd9b65ad0006b84f01e2db4215eb13b6
100069773,6,2100076001841940135,正常天气,121.554768,39.177161,121.556364,39.171251,1582972163,1582972166,1582972255,1582974323,1582973066,7dd28cf9103c910d5b398f67a5404197,b7e543f12c958c934318f18f72c21038
100069773,6,2100076005594825954,正常天气,121.56027,39.176524,121.586384,39.160931,1582973035,1582973036,1582973095,1582976575,1582973876,0128c10214d1feab9430ca7d89366618,d3f8209fef2b22bbd41bfac37aa4b0c2
100069773,7,2100076008094991639,正常天气,121.558326,39.17005,121.554974,39.174801,1582975353,1582975955,1582975974,1582977933,1582976793,85aebfe93f9a68c11d462db8db3811af,6adf572a64a872cdd1a4c7c0e7405285
100069773,7,2100076010404447952,正常天气,121.553067,39.175279,121.543084,39.179991,1582976342,1582976345,1582976694,1582979162,1582977665,1c02b8ca9acde6bd76e1460d19b5a63c,bd8a52757b6a4524de5d8ff9aba882bd
100069773,7,2100076010194929423,正常天气,121.546281,39.17646,121.542464,39.178031,1582976717,1582976718,1582976754,1582979237,1582977438,dc855395f763eb70aea6a33b87a1e268,fe1c638c4d888928af19818cedbe1d57
100069773,7,2100076010494035658,正常天气,121.546034,39.171984,121.530084,39.186451,1582977008,1582977009,1582977054,1582980128,1582977526,b00a3a45dcf30916c217896ba77c6800,7f674be600cf266c2c2e0e38b9d7ae7e
100069773,7,2100076009698985674,正常天气,121.546034,39.171984,121.534714,39.178571,1582977868,1582977869,1582977895,1582980688,1582978589,eaec21cc00d1a1696ac733dfce1a881d,7f674be600cf266c2c2e0e38b9d7ae7e
100069773,8,2100076013854295321,正常天气,121.552564,39.172208,121.582084,39.163061,1582981720,1582981734,1582981794,1582984480,1582982994,5dd86c8e20a85dbe46891cd02a28588a,424d7225e85ba77f1ee81b9175238782
100069773,8,2100076013662799033,正常天气,121.558245,39.173984,121.583894,39.159301,1582982895,1582982897,1582983209,1582985775,1582983977,20b041d7c458bb7af588ac19df6263c4,f776e79bfef1e964eb2022fb0b11aba0
100069773,9,2100076016072099103,正常天气,121.55371,39.180142,121.553274,39.197981,1582986541,1582986545,1582986593,1582989421,1582987805,bcbb21d1eb98a802a49a364aea521252,b2eed810e7ab91b9fd6daa78f3f0a5fd
100069773,9,2100076014583678878,正常天气,121.551971,39.179954,121.549104,39.197791,1582986858,1582986864,1582986893,1582989978,1582988304,e7e69cdf28f8ce6b69b4e1853ee21bab,7bc8a0b3c55d3ba0b2a44baf3ac55354
100069773,9,2100076014603142431,正常天气,121.55371,39.180142,121.552194,39.189851,1582987331,1582987336,1582987373,1582989431,1582988416,c4cff871d2c96af10aa0f4c23b84e698,b2eed810e7ab91b9fd6daa78f3f0a5fd
100069773,10,2100076017942070559,正常天气,121.55371,39.180142,121.538134,39.176641,1582989231,1582989236,1582989353,1582991391,1582990316,0d470ca1f04287cd1712b146bb5a992f,b2eed810e7ab91b9fd6daa78f3f0a5fd
100069773,10,2100076016471639966,正常天气,121.551971,39.179954,121.541794,39.152721,1582989360,1582989361,1582989413,1582992240,1582990801,705acdfcbe3d54c3eb0b1e91218e8c50,7bc8a0b3c55d3ba0b2a44baf3ac55354
100076651,1,2100075972671145520,正常天气,121.408435,39.190767,121.400394,39.183831,1582955033,1582955634,1582955674,1582957913,1582956293,09248bd33454849d41b5e564e0d3bce5,d3b31da76ce54a6903ccc2b3de7ea0d0
100076651,1,2100075975380633016,正常天气,121.409706,39.18548,121.394634,39.184291,1582956152,1582956163,1582956213,1582958012,1582956763,19a7932b2c5403c31f5ea40474e0f216,f5fb0605a343558f7b61689ed7ca5b83
100076651,2,2100075992579966867,正常天气,121.406904,39.189438,121.432694,39.187511,1582967872,1582967872,1582967914,1582971352,1582969612,5e15eaa29575208336584892dd687e34,17a6ab9127dacda03a975614ac1d1f27
100076651,2,2100075994931234482,正常天气,121.408145,39.191065,121.406654,39.189511,1582968762,1582968763,1582968814,1582970922,1582970203,b118fcc804270eeae6ba971a0d6a2bbc,db1cf2e7124428a65775c4b122210ebc
100076651,2,2100075997655074707,正常天气,121.406904,39.189438,121.432274,39.192311,1582969372,1582969373,1582969414,1582972553,1582970993,69436d4ae309d5078cc59b68964d9671,17a6ab9127dacda03a975614ac1d1f27
100076651,3,2100076000783959220,正常天气,121.408354,39.190886,121.416294,39.193501,1582971872,1582971875,1582971934,1582974632,1582973675,01795e3919026eaef2bfc225e19c65ce,2f178b470962ba62d19a5be774627fdd
100076651,3,2100076001821099188,正常天气,121.408354,39.190886,121.414464,39.196741,1582972108,1582972111,1582972114,1582974988,1582973731,fa65946a9b4ffe694aa659dabd2ec847,2f178b470962ba62d19a5be774627fdd
100076651,3,2100076004504994925,正常天气,121.408081,39.190806,121.408394,39.191131,1582972590,1582972591,1582972594,1582974451,1582973671,b09b432a8e28a435cfb28e5be6376535,1291ad903d77e032271e28eda566866e
100076651,3,2100076002196948828,正常天气,121.408022,39.190785,121.415844,39.190801,1582972810,1582972811,1582972834,1582975090,1582974071,67c17e9715e1d056cc1fa440f1335e34,dc95c57ad957488339f9f302f61a8645
10007871,0,2100075951223801085,正常天气,121.627764,39.149431,121.616954,39.172411,1582945540,1582945541,1582945575,1582948960,1582946621,ce6d0038874f05008344b823665fc152,77a2e613bf48970c3673429f3ba1551f
10007871,0,2100075951005008955,正常天气,121.630727,39.143733,121.629564,39.164451,1582945650,1582945652,1582945695,1582948050,1582946372,4b63bb7d8b5d8c847adbced3a03eb117,ba113afe127ed1bfc9f41e46d846ca1d
100084429,2,2100075976320288563,轻微恶劣天气,121.28367,38.940254,121.282844,38.939841,1582956412,1582956413,1582956534,1582958212,1582957493,8e2704cb6d07302696bd710b7f526f99,3ffcb3b457cfd62dd11ec85683f0c037
100084429,2,2100075975846265878,轻微恶劣天气,121.283001,38.940523,121.294854,38.938191,1582957199,1582957202,1582957255,1582958999,1582957742,fc4aaf70ede40f272bee0b7379310d57,6115d55cab85db555f2c2f0508668809
100084429,2,2100075974340118505,轻微恶劣天气,121.286131,38.943184,121.294854,38.938191,1582957451,1582957453,1582957494,1582959671,1582958353,fc4aaf70ede40f272bee0b7379310d57,47fd5ba6edb8dac7072f497bf95df81f
100084429,2,2100075975645333262,正常天气,121.29398,38.939755,121.295174,38.948951,1582958261,1582958300,1582958335,1582960841,1582959500,7decf0f7198de7eb3aaba586fba2e1c2,ab16ff9448370653b38e7999a3879ed5
100084429,2,2100075979004741390,正常天气,121.29398,38.939755,121.295174,38.948951,1582958869,1582958900,1582958935,1582961569,1582960100,7decf0f7198de7eb3aaba586fba2e1c2,ab16ff9448370653b38e7999a3879ed5
100084429,3,2100075990183642505,正常天气,121.253762,38.963446,121.244634,38.950471,1582966509,1582966512,1582966555,1582969989,1582967772,eb6fc2b72427eee24f39b160170f33c6,907cde7e1fe31741fdfa8a1d8f38de02
100084429,3,2100075991578838482,正常天气,121.254103,38.963689,121.253914,38.941101,1582967078,1582967080,1582967095,1582970318,1582968340,5c5ffd600c7616b550bce3e7a4e64327,2161bda6f58033d8ba98e0a285b1254a
100084429,3,2100075992275879896,正常天气,121.253762,38.963446,121.254204,38.958381,1582967184,1582967186,1582967215,1582969524,1582968386,0f897ca360be28af2271f5299b89e65e,2c039f34e2728255ce444c91386ca681
100084429,3,2100075993059493076,正常天气,121.254854,38.961221,121.266234,38.934851,1582967480,1582967486,1582967515,1582970840,1582968446,2faf34db404c39413ec40567fd794398,b43d65e85178cf1a13642f94836bc68b
100084429,4,2100075995862893740,正常天气,121.285046,38.94015,121.283514,38.939021,1582969364,1582969366,1582969697,1582972484,1582971166,8e2704cb6d07302696bd710b7f526f99,98122f432b0549ff457e85ee59e34496
100084429,4,2100075998693590038,正常天气,121.283001,38.940523,121.286374,38.942781,1582970130,1582970132,1582970155,1582972110,1582970672,8678e271dac836b791e76c7ed5763ba4,6115d55cab85db555f2c2f0508668809
100084429,4,2100075998705584105,正常天气,121.286131,38.943184,121.286684,38.943171,1582970168,1582970170,1582970428,1582972028,1582971070,8678e271dac836b791e76c7ed5763ba4,47fd5ba6edb8dac7072f497bf95df81f
100084429,5,2100076001344751227,正常天气,121.28661,38.942527,121.295174,38.948951,1582971161,1582971163,1582971175,1582973321,1582972423,7decf0f7198de7eb3aaba586fba2e1c2,ae6d22828cbfb7c4b6422f1ed41d58ec
100084429,5,2100076001730561819,正常天气,121.29544,38.960338,121.290714,38.961261,1582971637,1582971638,1582971654,1582974037,1582972538,e64eb7ddd3580a49e9b4437b2b40a6bb,818436768632b00bf513187bdfc6f188
100084429,5,2100076003836036891,正常天气,121.29544,38.960338,121.294494,38.939591,1582972225,1582972227,1582972254,1582975045,1582972361,fc4aaf70ede40f272bee0b7379310d57,818436768632b00bf513187bdfc6f188
100084429,5,2100076005572609749,正常天气,121.286751,38.942183,121.287014,38.942341,1582972972,1582972973,1582973154,1582975072,1582973873,8678e271dac836b791e76c7ed5763ba4,377fe74e1cca327390c5e56360a26d7e
100084429,5,2100076005285365371,正常天气,121.28661,38.942527,121.290724,38.961201,1582973340,1582973341,1582973634,1582976040,1582973941,e64eb7ddd3580a49e9b4437b2b40a6bb,ae6d22828cbfb7c4b6422f1ed41d58ec
100084429,7,2100076014138886013,正常天气,121.283109,38.940121,121.284894,38.942781,1582982210,1582982211,1582982213,1582984850,1582982811,f8bdbaebd77a8f1765428bc60caddfc5,32bbf2e53bc4b885dc3be45e322acb8f
100084429,7,2100076012935939620,正常天气,121.28295,38.9402,121.258974,38.948341,1582982430,1582982431,1582982453,1582985130,1582983331,3767382502ff715d59b49d1aeb8cc6a5,b512111233651885ea8f35735f285e04
100100915,0,2100075945762457278,正常天气,121.528068,39.277275,121.526534,39.268111,1582942840,1582943422,1582943466,1582952140,1582945000,32f3488976925b9596d00c8b75d6df32,3c8fd900b62387b5191dc1c75d2d4b67
100100915,0,2100075947552212670,正常天气,121.528068,39.277275,121.525934,39.268131,1582942899,1582943491,1582943526,1582952199,1582945059,32f3488976925b9596d00c8b75d6df32,3c8fd900b62387b5191dc1c75d2d4b67
10012191,0,2100075941891049038,正常天气,121.538302,39.188448,121.527044,39.187471,1582940391,1582940396,1582940449,1582942971,1582941213,94222e5defef06b3256ff885ce2783bc,fd5cd7448dd75dcde9b0a1e355febc6c
10012191,0,2100075945626731938,正常天气,121.524069,39.201243,121.527194,39.192321,1582942574,1582942576,1582942610,1582945514,1582944196,52b0fcc9ddcb7df97bb80c1f787aff27,d107f9da1c66ed0ee9bcc2ce6d1c0694
10012191,0,2100075944701036292,正常天气,121.526407,39.199698,121.529404,39.186191,1582942658,1582942659,1582942670,1582945538,1582943859,a6ba36a61b6bc7330cafdaf65e83a44f,9cc67ec8fd18d8988aa619475f326fd1
10012191,0,2100075945656714687,正常天气,121.526407,39.199703,121.532604,39.193141,1582942743,1582942744,1582942790,1582945383,1582943944,2f7c7bcdee088125fe6af022db5f554b,a195572519dcc7cf87ab7c7c972769ad
10012191,0,2100075950753186968,正常天气,121.523875,39.190154,121.514184,39.190571,1582944515,1582944821,1582944951,1582947215,1582945775,266451ad4da609c9fe5866e0bd26e27b,a2d9a9e3f7c28d66e0f651b5e62ec139
10012191,1,2100075955669075534,正常天气,121.538302,39.188448,121.497734,39.189691,1582946642,1582946648,1582947172,1582950662,1582947968,7c9b88f47084f26a01848c3045078c73,fd5cd7448dd75dcde9b0a1e355febc6c
10012191,1,2100075955130532973,正常天气,121.526718,39.195465,121.511204,39.187471,1582946878,1582946880,1582946993,1582949758,1582947840,ffeabd223de0d4eacb9a3e6e53e5448d,0952e6ab45647d2da346591e26d14a03
10012191,2,2100075964020262306,轻微恶劣天气,121.524069,39.201243,121.509004,39.188241,1582950332,1582950333,1582950830,1582953932,1582952133,6ade41edfd2746dc8c3894f32177e3fd,d107f9da1c66ed0ee9bcc2ce6d1c0694
10012191,2,2100075962806765316,轻微恶劣天气,121.526407,39.199698,121.521234,39.188471,1582950342,1582950343,1582950831,1582953702,1582951543,8c3d3d6f488c1ee1c2f74998369d46e8,9cc67ec8fd18d8988aa619475f326fd1
10012191,2,2100075963832599970,轻微恶劣天气,121.524069,39.201243,121.517834,39.187521,1582950912,1582950914,1582950951,1582954032,1582952714,19f02efda499e80a228bdb3f4f8768bb,d107f9da1c66ed0ee9bcc2ce6d1c0694
10012191,5,2100075978059908507,正常天气,121.549861,39.206712,121.538414,39.219091,1582957378,1582957981,1582958029,1582961278,1582958184,cd46912e05da6a41eeab7ffc28fd2210,9a8a95ec00f264f122617cf4cfc0d53e
10012191,5,2100075978247505849,正常天气,121.533847,39.205862,121.547324,39.206731,1582958981,1582958992,1582959109,1582961021,1582959652,fb4cddedd0d88b3982b24db2136a4aaf,4f51a6a4846bdc4bcb4c3c25d6f998aa
10012191,5,2100075978918790945,正常天气,121.534673,39.206335,121.545734,39.202931,1582959693,1582959698,1582959709,1582961493,1582960298,a6b4e84b85a0f916af1878a663adcc44,97088a9b8fcf27009c75915e9fc8b2c5
10012191,6,2100075982061733661,正常天气,121.538324,39.187921,121.530324,39.189321,1582961371,1582961379,1582961389,1582963177,1582962039,0f12b83eb02901056c345a4e672fbd5d,ac01144bc769a2948599f665df7b9cbe
10012191,6,2100075982597949020,正常天气,121.525007,39.18729,121.521494,39.189811,1582962017,1582962018,1582962049,1582964117,1582962918,557af8bfa5015a10549850ec17eca0bd,5c97713ebc2b961abc827da496ee6d0e
10012191,7,2100076008493679902,正常天气,121.52986,39.204529,121.524724,39.200841,1582974676,1582974676,1582974709,1582977076,1582975576,bfb51bef68c507cbaa834ad7233d6eb6,1a981e52c29bec2de3a49244dbec440b
10012191,7,2100076006357796258,正常天气,121.524069,39.201243,121.526844,39.203241,1582974945,1582974946,1582975189,1582977585,1582976206,a32dc022b6f1b1fc57f5da2a808acd97,d107f9da1c66ed0ee9bcc2ce6d1c0694
10012191,7,2100076008228455710,正常天气,121.52986,39.204529,121.527374,39.199961,1582974953,1582974954,1582975010,1582977293,1582975494,438bc5a300c8b59e48da11a5f49a49ac,1a981e52c29bec2de3a49244dbec440b
10012191,7,2100076007301416354,正常天气,121.524069,39.201243,121.536794,39.192571,1582976094,1582976097,1582976149,1582978974,1582977357,6b2cba6ec5b77185e4e363983526d65b,d107f9da1c66ed0ee9bcc2ce6d1c0694
10012191,7,2100076007759480226,正常天气,121.524069,39.201243,121.525484,39.201281,1582976236,1582976238,1582976269,1582978816,1582977498,43a479c62bea51dde25589a43f7d6335,d107f9da1c66ed0ee9bcc2ce6d1c0694
10012191,8,2100076010684875992,正常天气,121.521408,39.198805,121.525334,39.206821,1582978675,1582978675,1582978789,1582980535,1582979395,4d4e15ab33fcc2529cbae8e8d1585903,a37ce21127862fcec5b411d0c5321ed1
10012191,8,2100076011010361008,正常天气,121.526234,39.2013,121.522864,39.212361,1582979194,1582979195,1582979209,1582981414,1582980095,0836a50fd4a94845e58ecc667a5c532a,411d30240a79e4d177c44f5bd682f775
10012191,8,2100076012520408482,正常天气,121.524069,39.201243,121.549634,39.206461,1582980583,1582980585,1582981069,1582983643,1582981845,a9c0d9f9fa65e2f139a9d21727011590,d107f9da1c66ed0ee9bcc2ce6d1c0694
10012191,8,2100076014047102370,正常天气,121.524069,39.201243,121.522514,39.201471,1582980756,1582980758,1582980889,1582983336,1582981838,1ea1035ebf63f0a14bf20bf391dbf623,d107f9da1c66ed0ee9bcc2ce6d1c0694
10012191,8,2100076014997571499,正常天气,121.529754,39.204333,121.540104,39.203871,1582981032,1582981084,1582981129,1582984152,1582981984,38d84f74a3a2076e3715afd4052af9c0,3596715e3149f7708c4e3435f26da3dc
10012191,8,2100076012314724326,正常天气,121.52982,39.204001,121.533914,39.198861,1582981458,1582981462,1582981489,1582983258,1582982182,284f39b0289764d56b74d6b2a7f965a4,0fba07c4553eeb67d0ca4e9d5918eebf
10012191,8,2100076015305262491,正常天气,121.549861,39.206712,121.546594,39.196901,1582981479,1582982082,1582982088,1582984779,1582982919,7a0e6d3ee06fda57ab3bb590237a71b2,9a8a95ec00f264f122617cf4cfc0d53e
10012191,8,2100076015699821979,正常天气,121.549861,39.206712,121.544474,39.204811,1582983169,1582983773,1582983828,1582985989,1582984789,a6b4e84b85a0f916af1878a663adcc44,9a8a95ec00f264f122617cf4cfc0d53e
10012191,8,2100076015674918200,正常天气,121.544306,39.199017,121.544434,39.203031,1582983520,1582983521,1582983648,1582985620,1582984601,a6b4e84b85a0f916af1878a663adcc44,9456c8a57a67d2416799b926c60cfd7b
100122337,0,2100075938689123893,正常天气,121.584138,39.209122,121.565534,39.211911,1582914076,1582914078,1582944126,1582947000,1582915578,e4b4fdbb4dd2502beb4b721ca15f4a75,89e71d968812e6ad75fbc9be92b6193b
100122337,0,2100075940514727810,正常天气,121.581243,39.211355,121.571524,39.212041,1582939116,1582939124,1582943707,1582946100,1582940624,8c262f2a1c73ada30f6221bf03dee886,12d44099a69c59faa1cfdcdec7f60aa6
100122337,0,2100075951056160015,正常天气,121.565024,39.213017,121.568254,39.213601,1582945875,1582945881,1582945927,1582947975,1582947141,a284df1155ec3e67286080500df36a9a,87b284b630734f93f56ade25627e6d03
100122337,0,2100075953080730829,正常天气,121.582057,39.210689,121.573304,39.206101,1582945994,1582946014,1582950067,1582952400,1582947514,70433f81f654c8558154fa8324dc95ca,1ef636aab7d44e28e07b27635881078d
100122337,0,2100075955061425423,正常天气,121.565024,39.213017,121.596284,39.218531,1582946685,1582946691,1582946707,1582950165,1582947065,407056555411ebc13125fc99e1e6b4a2,87b284b630734f93f56ade25627e6d03
100122337,0,2100075956191626631,正常天气,121.574201,39.213941,121.586594,39.216711,1582947233,1582947235,1582947248,1582949873,1582948495,2d0da190f8a09bd385ba8ada79f857fb,d96405622d4ca20c9d05dd915ec2b9cd
100122337,0,2100075959088252551,正常天气,121.581806,39.210716,121.575604,39.206861,1582948350,1582948351,1582948570,1582952130,1582950151,acf666483bc8723fae7feda6f6a9cb7a,239b1936bbe7fa3af316a7a477cb5aba
100122337,0,2100075959988552850,正常天气,121.582121,39.210049,121.584714,39.209131,1582948561,1582948569,1582948630,1582951621,1582950189,43d08f1231d698f56ec6fae949f79493,971b4c60c7fe346a88f94a386a45b411
100122337,0,2100075959838311463,正常天气,121.590714,39.208451,121.590574,39.214461,1582948934,1582948935,1582949030,1582950914,1582949655,969cb329624fd35c290196c495b96b64,ce36aa65ae561ae708fcd99b3fedf2a2
100122337,0,2100075964002207000,轻微恶劣天气,121.581602,39.210951,121.570914,39.207901,1582950255,1582950257,1582950308,1582952955,1582951577,3f97239d2c5ca9f21175020fde4edc9e,4b67b06781002541a4d185591c94c347
100122337,0,2100075963511440684,轻微恶劣天气,121.582121,39.210049,121.572014,39.205451,1582950506,1582950509,1582950548,1582952906,1582951049,70433f81f654c8558154fa8324dc95ca,5c8e8e0b58fdea43215937c1e8333a5e
100122337,2,2100076014713734183,正常天气,121.590714,39.208451,121.573044,39.216081,1582981319,1582981320,1582981324,1582983479,1582982040,08781efdaa66fc2e09972a499584e3dd,ce36aa65ae561ae708fcd99b3fedf2a2
100122337,2,2100076014095631880,正常天气,121.58468,39.210107,121.568714,39.215261,1582981651,1582981652,1582981684,1582984171,1582982372,2abe326c715e57fd40a097d8b298caa0,79565b3aed354c451bcfcae05e0576f9
10012508,0,2100075948863031096,正常天气,121.549801,39.290279,121.519764,39.294751,1582944321,1582944321,1582944364,1582946781,1582945401,e9aa84196fa1300e2d1db6d179bd440d,4bede305ab5609d98e8fcbdf1a689508
10012508,0,2100075952751609467,正常天气,121.522544,39.292503,121.528224,39.277041,1582945793,1582945804,1582945865,1582948253,1582946464,6651526b6fb8f29a00507de6a49ce30f,6f5002b6a0541de8c68b760c17d9b4ab
10012508,0,2100075952560768850,正常天气,121.521858,39.292328,121.522214,39.279721,1582945854,1582945855,1582945866,1582948614,1582946755,81d61322475ff09463c7d399f58ebecc,5707c316ac22c74ac261b423ab5d702c
10012508,0,2100075950690010642,正常天气,121.523506,39.286147,121.522684,39.275191,1582945997,1582945998,1582946045,1582948517,1582946718,650cc0b1507d11c50ed323977f2a306c,0884d7b4382398adce68c774378e0cff
10012508,0,2100075956298483218,正常天气,121.523506,39.286147,121.544254,39.282411,1582947823,1582947823,1582947845,1582950583,1582948903,4cc08357a7665b7d8c03d07bb7e1e050,0884d7b4382398adce68c774378e0cff
10012508,1,2100075936508445785,正常天气,121.548347,39.290989,121.539594,39.296711,1582903483,1582903494,1582951205,1582953300,1582904994,426f733edc7d254e519310d1437bf084,2e08580df44a7a516062ce9fce5db1f2
10012508,1,2100075964324874121,正常天气,121.548947,39.29085,121.531714,39.306631,1582949957,1582950318,1582950365,1582953377,1582951758,5476bc971d23be16f1c20bbdcc606797,ccfd8bf94b1f8e72e7fc2529e03dbbcc
10012508,1,2100075961556567864,正常天气,121.549801,39.290279,121.548824,39.292841,1582950025,1582950025,1582950065,1582952425,1582951345,647ec1a3fb20baf27eddaa83ba0d87ac,4bede305ab5609d98e8fcbdf1a689508
10012508,1,2100075963115505464,正常天气,121.549801,39.290279,121.550014,39.294401,1582950212,1582950213,1582950245,1582952672,1582951413,647ec1a3fb20baf27eddaa83ba0d87ac,4bede305ab5609d98e8fcbdf1a689508
10012508,1,2100075962793461560,正常天气,121.549801,39.290279,121.532164,39.306211,1582950275,1582950276,1582950306,1582953515,1582951416,f97e50fefac20ea7fc94bf7943883bfb,4bede305ab5609d98e8fcbdf1a689508
10012508,2,2100075971152348354,正常天气,121.548947,39.29085,121.549444,39.286151,1582953495,1582953496,1582953544,1582955956,1582954216,4cc08357a7665b7d8c03d07bb7e1e050,cf4c46f7bb179a0f1da025420360ab72
10012508,2,2100075970640381122,正常天气,121.548947,39.29085,121.552574,39.283291,1582953841,1582953841,1582953844,1582956961,1582954561,ad4cc1fb9b068faecfb70914acc63395,cf4c46f7bb179a0f1da025420360ab72
10012508,4,2100075989918025570,正常天气,121.550143,39.288092,121.550514,39.300301,1582966446,1582966447,1582966504,1582969566,1582967527,f5a74b2d224fd6513e1fe2fd81b974eb,6a7a7c71616fe69e649c5c1c62d77983
10012508,4,2100075990183511483,正常天气,121.548137,39.289908,121.550104,39.289631,1582966510,1582966511,1582966564,1582968730,1582967591,8b8ee7e764888d2d1df5dc27e76d1a6a,78420007343a05ce514205a4d077adec
10012508,5,2100076000976897929,正常天气,121.548947,39.29085,121.539324,39.291611,1582970654,1582971015,1582971065,1582973414,1582972094,ceefcea269c7690254a48ad35123b01a,ccfd8bf94b1f8e72e7fc2529e03dbbcc
10012508,5,2100076000185189720,正常天气,121.535106,39.289143,121.530114,39.285481,1582972098,1582972098,1582972144,1582974258,1582973178,966029d82dca378668e9e1d17322c39d,f5336998fd0d2e51e97e7e4be96e8e88
10012508,5,2100076005556290812,正常天气,121.528674,39.288141,121.523364,39.277171,1582972923,1582972926,1582972984,1582975863,1582974366,00c0ee76f9fad26da37faf0cefcc0466,ccf7bd17d09180871b12929c5e7cd64e
10012508,5,2100076003662693584,正常天气,121.526114,39.292882,121.523734,39.276261,1582972992,1582972994,1582973044,1582975332,1582973714,00c0ee76f9fad26da37faf0cefcc0466,f80344070cf437ac88121d09d6266b90
10012508,5,2100076005617731370,正常天气,121.522468,39.292353,121.519344,39.273411,1582973103,1582973106,1582973165,1582976043,1582973826,70cecfb7470bdf9a260b859a026d0f84,482ddc64ef46321c2e12d78b17ae93d5
10012508,5,2100076010171795256,正常天气,121.549801,39.290279,121.557694,39.303301,1582976622,1582976622,1582976644,1582978842,1582977702,01dce90cc5079b2a809f6a2a6e829392,4bede305ab5609d98e8fcbdf1a689508
100147671,0,2100075947830019923,正常天气,121.428734,39.196173,121.448334,39.213411,1582943482,1582943483,1582943513,1582946100,1582944983,7604775a6af51891221a504623faccd7,6475680fda2c778e1898c1a122deead9
100147671,0,2100075944805992446,正常天气,121.428734,39.196173,121.448334,39.213411,1582943562,1582943563,1582943574,1582946100,1582945063,7604775a6af51891221a504623faccd7,53cfe05b0dab1dea25e3e7fa3790b837
100147671,1,2100075951488861278,轻微恶劣天气,121.428734,39.196173,121.432994,39.199061,1582945786,1582945786,1582945794,1582947586,1582946866,d320a8658cbd1f7942dddab4d5104d12,daac916b42af462696ae1cd2934d728f
100147671,1,2100075951388984472,轻微恶劣天气,121.428355,39.196115,121.433704,39.197851,1582946346,1582946348,1582946394,1582948146,1582947068,ceb833cbc57b806a7444f800f70d3a10,3738822f6ae137bd98ad9c33b382e9bd
100147671,1,2100075955829081465,轻微恶劣天气,121.429207,39.195913,121.428494,39.217731,1582947200,1582947201,1582947234,1582949780,1582948101,7604775a6af51891221a504623faccd7,1693e76e92af596e58f5e11e1cc7fdb4
100147671,1,2100075956836500761,轻微恶劣天气,121.426161,39.194861,121.434574,39.225281,1582947427,1582947428,1582947474,1582950247,1582948328,7604775a6af51891221a504623faccd7,ab87d7d598ad47ca5db3bf9e6cbdee48
100149376,0,2100075944643265685,正常天气,121.446604,39.210091,121.441504,39.209941,1582942179,1582942180,1582942194,1582943979,1582942780,644e1ba18aa8b67901d08ba83e18f570,724cb98f99760fa62c34bb6b103129e7
100149376,0,2100075947492443842,正常天气,121.437,39.209914,121.454094,39.230601,1582942632,1582943246,1582943274,1582946052,1582944626,5ef6c6542574a849d8118260c7402748,51a5d14014768d00793c38055e252da0
100149376,0,2100075946248930620,正常天气,121.436967,39.209952,121.461284,39.233361,1582942657,1582942657,1582942673,1582945537,1582943617,af990c48d944f73d73f2ef9cef7de26f,bd40b78857282e8450f0dae27ef953f4
100149376,1,2100075951884699075,轻微恶劣天气,121.447116,39.210352,121.432524,39.208991,1582945747,1582945747,1582945795,1582947547,1582946347,44042eab0fa9a05812c8b07be18acd99,215b931844ff0a296cbeca539067babf
100149376,1,2100075952817210757,轻微恶劣天气,121.446917,39.210012,121.446714,39.210271,1582945987,1582945990,1582946034,1582947787,1582946590,976abf49974d4686f87192efa0513ae0,481393d0db6ec38a9114882bfb944eb5
100149376,1,2100075954367661177,轻微恶劣天气,121.437103,39.209999,121.451614,39.200031,1582946496,1582946498,1582946755,1582948956,1582947278,30adf8c6e0ae5fb6fc843a172b408341,bb0a313f554c3a2b6e9944368512bb9b
100149376,1,2100075955249973016,轻微恶劣天气,121.446986,39.210199,121.450714,39.196631,1582947490,1582947491,1582947535,1582949590,1582948151,e8388e0e701d8cde426a7bc124944a7e,58fb8839f0a82661eaea87c3317c64c8
100149376,1,2100075958617540376,轻微恶劣天气,121.446986,39.210199,121.450714,39.196631,1582947715,1582947715,1582947775,1582949875,1582948435,e8388e0e701d8cde426a7bc124944a7e,58fb8839f0a82661eaea87c3317c64c8
100149376,1,2100075957434156783,轻微恶劣天气,121.446684,39.206159,121.451934,39.197651,1582947768,1582947801,1582947835,1582949688,1582948521,86e50587e1ba446bc427c687f8593606,fff5667fb4e861f4cbefc270e44a9d08
100149376,2,2100075997484254910,正常天气,121.437747,39.210016,121.452194,39.209811,1582969897,1582969900,1582969914,1582971877,1582970800,6cd8c1a4643b307afcef186a477c1327,904dbfbeb722f284f7cd8f21ae9cc7bd
100149376,2,2100075997591340504,正常天气,121.452226,39.209721,121.475364,39.219551,1582970202,1582970203,1582970694,1582973742,1582972183,197860a1d225a716711dada1ef8bacc5,86ba4e4a1dcc00e61b1d82ea394e4533
100149376,2,2100075999959811612,正常天气,121.452226,39.209721,121.452054,39.209731,1582970780,1582970785,1582970814,1582972880,1582972225,6cd8c1a4643b307afcef186a477c1327,3b8393ba2f843ddd21f65c4346e34f34
100149376,2,2100075999523898744,正常天气,121.452471,39.209303,121.466964,39.218031,1582971111,1582971115,1582971174,1582974471,1582972195,1f04e0a37fa991e01540253ff04c9eb4,2626cd2412b5a56fe7665ee8aeb86f98
100166169,1,2100075954765629183,正常天气,121.571336,39.167817,121.569994,39.172371,1582946795,1582946795,1582946837,1582949615,1582948115,48ee039537532a1033e9658d55b35273,7c50176c35b3c000b063377da2400927
100166169,1,2100075954864882874,正常天气,121.567731,39.170236,121.580594,39.164181,1582947062,1582947064,1582947076,1582951562,1582949764,e381f35db0f9feb30773a09f1b01ec2e,1fc3d0b7ac24cab06e42d91da299f082
100166169,1,2100075956148634810,正常天气,121.567731,39.170236,121.576754,39.171081,1582947114,1582947116,1582947136,1582951434,1582949456,fc5a6c87806ede3d5b8738c70fa03ee6,1fc3d0b7ac24cab06e42d91da299f082
100166169,1,2100075959331554602,正常天气,121.568099,39.168765,121.566774,39.166251,1582947958,1582947969,1582947976,1582950118,1582948869,2b088dbfca3bce1a3a4544d9052cf65a,0391707481a879be2ba6ff705deebdf6
100166169,1,2100075957193049947,正常天气,121.570125,39.169721,121.580644,39.162101,1582947985,1582947985,1582948038,1582951585,1582949245,8cb4b2d22536caa60f5b7baa02b3f4d3,0617b3492c57dac44c7e497d1d6edb46
100166169,1,2100075965241689998,正常天气,121.573543,39.167368,121.564444,39.184481,1582950702,1582950703,1582950733,1582953642,1582952323,60604997ff14520288880e23f6d842f9,608a219c6247f6a4ef9fd99b858d922e
100166169,3,2100075977029846780,正常天气,121.548577,39.158076,121.540844,39.168961,1582957419,1582957421,1582958355,1582960839,1582957713,27f39424f49df0f7e460750ffb8bb543,0020d21ee7998f3dd30181fb8c27d5fd
100166169,3,2100075978610443573,正常天气,121.548738,39.158,121.543334,39.168451,1582958056,1582958058,1582958114,1582961116,1582959318,4c1f2c78239ea818129b24d13375d37e,77507dc0e06a0cc54c633014b70d3ce8
100166169,3,2100075976565949931,正常天气,121.548869,39.157993,121.540844,39.169801,1582958864,1582958871,1582958894,1582960784,1582959531,f9a5c1e76ac2079dce30f218f190178e,8f2766115ae2cbc7122de97bd3621588
100166169,4,2100075980343510470,正常天气,121.548314,39.158081,121.541444,39.167261,1582959969,1582959970,1582960154,1582962909,1582961350,ea7ad9e553efa98c7d0d3b9bb7c1c2e2,a01317150fc9e5d931d0b4833a0e3413
100166169,4,2100075980155160198,正常天气,121.559276,39.161311,121.565994,39.149021,1582960998,1582961000,1582961054,1582964118,1582962260,1a9f9591a28c27396c926ae04999d4fb,d27aa77788550794624d26adc2ec414b
100166169,4,2100075979909596882,正常天气,121.557322,39.153776,121.566264,39.150831,1582961156,1582961160,1582961175,1582963556,1582962060,1a9f9591a28c27396c926ae04999d4fb,22e1e0e15b3aa6fcb7d4ff519cf141ec
100166169,4,2100075983207368448,正常天气,121.56753,39.154567,121.568784,39.146741,1582961452,1582961455,1582961594,1582964212,1582962895,cf518edd0cbccb2c8f21b053b9986945,35ee8b2bab4fe55ff8ccbe148a2aa1ac
100166169,4,2100075983596881346,正常天气,121.564986,39.156298,121.583444,39.164471,1582961969,1582961971,1582962494,1582965569,1582962991,c8407891d40cc63779b63bc5b70acdc1,223f7d5da10ede1b8ce507d0eeac2115
100166169,4,2100075983109916507,正常天气,121.570125,39.169721,121.587184,39.156891,1582962776,1582962777,1582962795,1582966736,1582964577,89c79eb616fc78c3c624c89cc5da846c,0617b3492c57dac44c7e497d1d6edb46
100166169,4,2100075987279316665,极恶劣天气,121.566684,39.15227,121.567654,39.156541,1582964894,1582964895,1582965135,1582967234,1582965675,eb1848290d5a7de9c9ccabc67fefa211,b4b540e772f9bcfe98f4b5f1a6b32b54
100166169,4,2100075986340906686,正常天气,121.562434,39.152941,121.582034,39.160761,1582964904,1582964905,1582965136,1582968325,1582965985,8cb4b2d22536caa60f5b7baa02b3f4d3,b53f7c8fa09da57ed33e655d63b6415e
100166169,4,2100075989157283513,极恶劣天气,121.566684,39.15227,121.568244,39.158281,1582965327,1582965328,1582965376,1582967907,1582966168,30008e1cd5884b70a89780110d30dab6,b4b540e772f9bcfe98f4b5f1a6b32b54
100166169,4,2100075989490370035,极恶劣天气,121.56805,39.154157,121.580964,39.162331,1582965749,1582965769,1582965799,1582970129,1582967029,8cb4b2d22536caa60f5b7baa02b3f4d3,c801ee5ce5546b0130b3320770feb20b
100166169,4,2100075988349060478,正常天气,121.567592,39.153504,121.571144,39.154841,1582965878,1582965883,1582966336,1582969538,1582967503,d4878ad43c0bc7465005a265c52dd132,56701a700bcce07a0fae3cf7dde82f2a
100166169,4,2100075990207760057,正常天气,121.566684,39.15227,121.581304,39.162151,1582966671,1582966672,1582966697,1582969731,1582967392,8cb4b2d22536caa60f5b7baa02b3f4d3,b4b540e772f9bcfe98f4b5f1a6b32b54
100166169,6,2100076011227448323,正常天气,121.562384,39.153991,121.567244,39.149721,1582978906,1582978908,1582978934,1582981246,1582979988,1a9f9591a28c27396c926ae04999d4fb,fc6fba7f90e7741aacebfc708fee1fcd
100166169,6,2100076013406783005,正常天气,121.56286,39.152704,121.550554,39.156601,1582979507,1582979510,1582979595,1582981847,1582980470,d5fccf7131280049ecec69576d3675c1,0dbc77b98d13500d4045570451339e15
100166169,6,2100076011652515094,正常天气,121.548557,39.159388,121.537334,39.172221,1582980158,1582980159,1582980194,1582982318,1582981059,950ca0d4c8a5de0a39073b556ebed700,bd8c11deed6ddfe2fb44be9ad79bbc3b
100170616,0,2100075935926027338,正常天气,121.49208,39.193909,121.497124,39.197461,1582903183,1582903184,1582942334,1582944300,1582904684,e39d70de73589534fe215297da6acc56,78918e7e7749d5d2af5c3707bab85840
100170616,0,2100075937154958520,正常天气,121.481117,39.195842,121.495174,39.196221,1582928390,1582928391,1582941314,1582943400,1582929891,d5e6e9229a6fd9a85534411642459145,fc4a3fb58f83559ac96264ae3841777f
100170616,0,2100075940001121354,正常天气,121.49208,39.193909,121.494714,39.198221,1582933502,1582933503,1582942274,1582944300,1582935003,ac77fafa3b3ec3a7a2c13a680d083b1d,78918e7e7749d5d2af5c3707bab85840
100170616,0,2100075940320184305,正常天气,121.477303,39.199241,121.493184,39.195781,1582935509,1582935509,1582940414,1582942500,1582938052,52c3e56779bfc21b30b34d2ca03a198c,2fea4fcfbe0a6814ce78bd2dc079a554
100170616,0,2100075940607985358,正常天气,121.468303,39.199595,121.488424,39.195401,1582935859,1582935864,1582939034,1582941600,1582937364,62a069dbc4d470f664866406e1b12ab3,54bde0cd20b05b79728760b2620b9659
100170616,2,2100075939039676405,正常天气,121.47919,39.199369,121.470554,39.185311,1582922672,1582922674,1582947615,1582950600,1582924174,c464bd8bb009852220069e5b0c15a48c,6219fd8664d29e83239e7ded52e79c15
100170616,2,2100075954865964959,正常天气,121.472617,39.199217,121.471584,39.192571,1582946428,1582947068,1582947075,1582949488,1582948808,9533171ff446ebddd39cf78eebc5a272,64cf0ecac2051c398c170b4c78d9a334
100170616,2,2100075955876726687,正常天气,121.472617,39.199217,121.473564,39.194661,1582946662,1582947320,1582947375,1582949722,1582948940,f2b1028a3ebab7ee757e4bfb75846b05,64cf0ecac2051c398c170b4c78d9a334
100170616,3,2100075963227702522,正常天气,121.483879,39.18669,121.489604,39.194811,1582949604,1582949606,1582949655,1582951404,1582950266,62a069dbc4d470f664866406e1b12ab3,bd831ecbf6784afeaac44d632cf87a53
100170616,3,2100075963452688320,正常天气,121.483311,39.195224,121.488484,39.182771,1582950300,1582950300,1582950314,1582952580,1582951560,8b559c4c83d12f842519bd57b955bd77,b6524182fab1daffd343212cab6e87d9
100170616,4,2100075976022591125,正常天气,121.465171,39.203539,121.458104,39.192741,1582956351,1582956357,1582956374,1582958571,1582957437,6651559155cea890dff8a8c1ea6d7e0e,a2ea88c0bdfe65eee3a82b2353dbcd09
100170616,4,2100075976326448789,正常天气,121.465171,39.203539,121.443944,39.191081,1582956431,1582956433,1582956494,1582959191,1582957513,e869e0a97743bd0093b34b8b304dcd92,a2ea88c0bdfe65eee3a82b2353dbcd09
100170616,4,2100075977231042173,正常天气,121.472405,39.19925,121.483474,39.191391,1582959125,1582959126,1582959134,1582961045,1582959846,f6d9e459b9fbf6dd26c4f7d621adec1d,503dc62baccd18e725f3ce11b4870a0c
100170616,4,2100075981231359936,正常天气,121.483311,39.195224,121.482834,39.207131,1582959832,1582959833,1582959854,1582962172,1582960913,71a5c0514ab83382d98154e5a5f9d813,b6524182fab1daffd343212cab6e87d9
100170616,5,2100075983974631118,正常天气,121.468303,39.199595,121.487534,39.197781,1582962823,1582962827,1582962914,1582964983,1582963727,bfc6300ff7a5db19d516728870b565e0,54bde0cd20b05b79728760b2620b9659
100170616,5,2100075983437038962,正常天气,121.482584,39.195491,121.486664,39.189081,1582963151,1582963156,1582963274,1582964951,1582963636,643c25e4b9585bc9788ecc544aad6548,78caeebc35fd606ea3604c7555441cce
100170616,9,2100076010263873439,正常天气,121.472617,39.199217,121.490514,39.176041,1582977244,1582977846,1582977854,1582980904,1582977942,a991db6597ec0815607f2ba925aef3de,64cf0ecac2051c398c170b4c78d9a334
100170616,9,2100076009936914018,正常天气,121.47195,39.199084,121.486104,39.192531,1582977659,1582977660,1582977674,1582979699,1582978560,496bd106440a5cd69e582bc0035f8512,7c3a13a02f012828c68de8c36949560a
100170616,10,2100076015020902303,正常天气,121.472617,39.199217,121.489384,39.199771,1582981266,1582981868,1582981873,1582984086,1582982886,ebeb8ca7ad138e82924acde418385f58,64cf0ecac2051c398c170b4c78d9a334
100170616,10,2100076014364723185,正常天气,121.477303,39.199241,121.462824,39.193671,1582981629,1582981629,1582981633,1582984149,1582982349,8ea8d311bcd9943463982e6e3803f28c,2fea4fcfbe0a6814ce78bd2dc079a554
100170616,10,2100076014120929265,正常天气,121.477303,39.199241,121.488564,39.197741,1582981986,1582981987,1582981992,1582984386,1582982707,78e69878a5b64d31163a2ca4482870bf,2fea4fcfbe0a6814ce78bd2dc079a554
10021791,1,2100075984131196201,正常天气,121.44255,39.210245,121.434644,39.214491,1582964322,1582964324,1582964334,1582968522,1582965482,c8b2f0af24059a3a853522cd89439aab,f6febb1d6b8765f48a04c1d0db307239
10021791,1,2100075985484481542,正常天气,121.452418,39.210218,121.429394,39.216751,1582964537,1582964538,1582964574,1582967237,1582965198,e4ad83b4cf0c6eb39612055f6c1997bb,60d65d040301e2e7c479b794d7e31a97
10021791,1,2100075990485010198,正常天气,121.447666,39.213948,121.437804,39.217921,1582966344,1582966350,1582966494,1582968624,1582967430,7604775a6af51891221a504623faccd7,454226d49cbc6914be84bba1aec53dd6
10021791,1,2100075990982690243,正常天气,121.436388,39.21014,121.452714,39.207871,1582967313,1582967313,1582967574,1582969713,1582968153,411c36cf803a0247d77dc16b6025b574,f0eaba339c8bbea589339af04a3b186e
10021791,1,2100075991312500028,正常天气,121.436967,39.209952,121.454684,39.208611,1582967457,1582967458,1582967575,1582969557,1582968238,8efec69048f4b21e95f76497d5fb5024,bd40b78857282e8450f0dae27ef953f4
10021791,3,2100076003628582713,正常天气,121.447827,39.214076,121.439984,39.209191,1582972792,1582972792,1582972914,1582975432,1582973512,5a97cec4dea45256ad4a1fdbe90f0760,75cec0addd9ef440ce58dbce678874e6
10021791,3,2100076005595547326,正常天气,121.437747,39.210016,121.410124,39.213791,1582973033,1582973038,1582973214,1582975793,1582974118,11eb051976251821716f4b0d86cb48b5,904dbfbeb722f284f7cd8f21ae9cc7bd
100240426,0,2100075949387777579,正常天气,121.457008,38.950692,121.446384,38.947411,1582944927,1582944927,1582944960,1582947327,1582946547,e586a4f55fb43a540c2e9dab45e00f53,15a179e71a5bc56eafbe7cc699fc1928
100240426,0,2100075948669896667,正常天气,121.460368,38.949692,121.454944,38.950611,1582944993,1582944994,1582945019,1582947633,1582946614,6c62628e12a5793f9e599d2b8dadb324,4bbd84b81e665b6207105218aa225688
100240426,0,2100075952407774537,正常天气,121.45651,38.94951,121.430514,38.943821,1582945439,1582945440,1582945499,1582948679,1582946400,d91d77b703e1ce95d987efa394ef89bb,4c3228a8895097ac87218789db5e724c
100240426,3,2100075968444859813,轻微恶劣天气,121.452396,38.949151,121.450334,38.944981,1582953290,1582953291,1582953299,1582955390,1582953891,8263f297de1b9978cb368d6ed89c363c,6cb98936ea98dc1000a2fd5351059bd2
100240426,3,2100075971751839356,轻微恶劣天气,121.444214,38.94859,121.432724,38.979651,1582953725,1582953727,1582953779,1582957505,1582954987,3c4d2a9f8b4fe6d0e27bc43c4ae5755a,1618c1b7bcddadb122be2ab28c521a53
100240426,3,2100075973037524231,轻微恶劣天气,121.445014,38.948537,121.424734,38.967791,1582954332,1582954332,1582954439,1582957752,1582955052,f74518f730e5b0bb75f9ff63d9a90ba7,661d852dfe4867978642efdbd288ba58
100240426,3,2100075971649176986,轻微恶劣天气,121.444898,38.956084,121.429804,38.963821,1582954957,1582954963,1582954979,1582958077,1582956043,dca1f9292340f590d60d2a31f8467993,37a1c689761ff5419bae078458e84446
100240426,4,2100075974615106762,轻微恶劣天气,121.446004,38.953551,121.449694,38.953161,1582957232,1582957236,1582957259,1582959152,1582957836,0ddcab68deedb79f8d12da41d08cd6ca,37e28623831c8485212ad333668f60d0
100240426,4,2100075974335857875,轻微恶劣天气,121.445193,38.948639,121.447174,38.960891,1582957437,1582957442,1582957498,1582960317,1582958402,55e5fb0a3fffcf47c83728b47cfd4bc6,36b9548031a397219334d9fe1120fac7
100240426,4,2100075976193410925,轻微恶劣天气,121.444474,38.949871,121.448084,38.962081,1582957692,1582957697,1582957739,1582960392,1582958417,55e5fb0a3fffcf47c83728b47cfd4bc6,0add6173df4f7c3c1c2f3241bce93bf5
100240426,4,2100075977127396685,正常天气,121.440421,38.955427,121.452754,38.952201,1582958450,1582958451,1582958459,1582960670,1582959171,0e7e05fa1026b0c5459267608ae320b8,7ea4166215075c0c71c8542ba4215d3a
100240426,4,2100075979200955594,正常天气,121.446004,38.953551,121.451814,38.955781,1582960123,1582960127,1582960138,1582961923,1582960667,66886861b7cbac0778e33b944a903e45,37e28623831c8485212ad333668f60d0
100240426,4,2100075979773150925,正常天气,121.438382,38.955618,121.425194,38.943651,1582960259,1582960260,1582960499,1582963019,1582961340,07650ba2526e11f4960c5bfa1c66039c,80319c694b7512c8d063da741b00a6f8
100240426,4,2100075980442174666,正常天气,121.446004,38.953551,121.437784,38.953811,1582960487,1582960492,1582960498,1582962287,1582961032,71e0d5dfc8cc6496344089ef34fca9bb,37e28623831c8485212ad333668f60d0
100240426,5,2100075980879693011,正常天气,121.445193,38.948639,121.447354,38.939401,1582961841,1582961856,1582961878,1582964721,1582962816,e6e6ef36f99c2415935441bd932a051a,36b9548031a397219334d9fe1120fac7
100240426,5,2100075983305541019,正常天气,121.451526,38.940443,121.459824,38.938841,1582962191,1582962194,1582962238,1582964231,1582963274,9706021795523617d96f8b306dd41d23,5b0d4d01168dd27c97bfb7769be16eaf
100240426,5,2100075983804204443,正常天气,121.451526,38.940443,121.459784,38.939451,1582963267,1582963272,1582963319,1582965667,1582964532,9706021795523617d96f8b306dd41d23,5b0d4d01168dd27c97bfb7769be16eaf
100240426,7,2100075997600416907,正常天气,121.445883,38.958158,121.446394,38.953571,1582970233,1582970234,1582970280,1582972273,1582971134,126542e595530c7173d576998bfb5521,e5ad64db0ef9ba22939773df1e24e593
100240426,7,2100075997272410053,正常天气,121.445402,38.94851,121.441474,38.950881,1582970396,1582970397,1582970639,1582973036,1582972197,8a165b85e6fcd3c9cc27f3a9d09bc412,1207a5d10429f237950992b90aea7a6e
100240426,7,2100076001947420613,正常天气,121.445402,38.94851,121.428754,38.930221,1582971442,1582971442,1582971479,1582974862,1582973422,6d3f23371cfa2387f6cfd7a8fa0dc66b,1207a5d10429f237950992b90aea7a6e
100240426,7,2100076002645608060,正常天气,121.444214,38.94859,121.435284,38.932421,1582971644,1582971648,1582971659,1582974764,1582972908,901a2ac3697ef6794c8ef50f07ad412b,1618c1b7bcddadb122be2ab28c521a53
100240426,7,2100076002650949083,正常天气,121.441561,38.949119,121.435284,38.932421,1582971657,1582971659,1582971719,1582974177,1582972003,901a2ac3697ef6794c8ef50f07ad412b,c9c52ae45235467630d10acb35d9a1cc
100240426,8,2100076007162382277,正常天气,121.445402,38.94851,121.455704,38.941001,1582974869,1582974870,1582974899,1582977569,1582975950,063f7422156d70b16f30100452ad476f,1207a5d10429f237950992b90aea7a6e
100240426,8,2100076008090043803,正常天气,121.451526,38.940443,121.452284,38.954201,1582975922,1582975925,1582976159,1582978322,1582977185,ad50f1ed36ca9fef08730b561d2289d4,5b0d4d01168dd27c97bfb7769be16eaf
100240426,8,2100076009823077705,正常天气,121.45651,38.94951,121.446184,38.968601,1582976726,1582976727,1582976938,1582979726,1582977567,17630ea9a25cc819d23e9240c0b6b5ca,4c3228a8895097ac87218789db5e724c
100240426,8,2100076011731158345,正常天气,121.45651,38.94951,121.446184,38.968601,1582977152,1582977153,1582977178,1582979672,1582977933,17630ea9a25cc819d23e9240c0b6b5ca,4c3228a8895097ac87218789db5e724c
10037225,0,2100075945238333363,正常天气,121.515862,39.162843,121.522264,39.165651,1582941667,1582941668,1582941699,1582943947,1582942268,0a07cea9ac4763ca9bc146298238a386,91ed9c25c9704c7adbf197e3bac6ded9
10037225,0,2100075944639170231,正常天气,121.521776,39.164842,121.507274,39.161511,1582942106,1582942138,1582942179,1582943906,1582943038,b96be2692901116418947b01978532b0,e1a4f61faeabcaa1cbd550214d020669
10037225,0,2100075945720055159,正常天气,121.514535,39.165257,121.528244,39.161931,1582943190,1582943190,1582943202,1582945470,1582944090,f6d98b61e8edb5cca3fcc3b49c770680,f5532b05894d8310cec40b0182da5eae
10037225,1,2100075944859207641,正常天气,121.545403,39.157502,121.548214,39.164991,1582941185,1582941192,1582947400,1582949700,1582942692,5bae0da0159b9b504b837fcb37360b64,feca15fe4790dcadc3a0f4c524e0c6d2
10037225,1,2100075946480862553,正常天气,121.530698,39.158188,121.522194,39.150061,1582943912,1582943916,1582944460,1582947000,1582945416,c24a1681af9da0c0b42cd65f8b4b6dcf,a7b19bf5949e53794d2fceaee23e8008
10037225,1,2100075948945245875,正常天气,121.539025,39.154215,121.524094,39.153481,1582944702,1582944703,1582944760,1582946502,1582945603,ca1908c11971622af306f2029711cdfe,4996b820830326e1e5b9d18c8bf86264
10037225,1,2100075951957148782,正常天气,121.523626,39.144534,121.548844,39.149761,1582945904,1582945910,1582945960,1582948604,1582946990,ffddd6dfc826d2ca2274d55e0574e062,2a1be377584eb1c1874426845c15e943
10037225,1,2100075950056637550,正常天气,121.523626,39.144534,121.524344,39.144581,1582945996,1582946000,1582946020,1582948036,1582947080,8648426ee7b16e55a4cdc8be1d6674b5,2a1be377584eb1c1874426845c15e943
10037225,1,2100075956809631105,正常天气,121.545611,39.157682,121.548094,39.157511,1582947356,1582947369,1582947401,1582949336,1582948269,14df3934c7a79e2678d88ce11ab028d7,68c5462d559371ff8f90fc0e26da8276
10037225,1,2100075961748653627,轻微恶劣天气,121.545255,39.157557,121.540114,39.153141,1582948828,1582949369,1582949380,1582951768,1582950629,705acdfcbe3d54c3eb0b1e91218e8c50,4516ecf6d84e35ff0aa7ea0d6b9bb6dc
10037225,1,2100075961882445491,轻微恶劣天气,121.539025,39.154215,121.542094,39.154481,1582949782,1582949783,1582949800,1582951822,1582950503,3e08161a40070bda79d99198ae38d270,4996b820830326e1e5b9d18c8bf86264
10037225,1,2100075963793671632,轻微恶劣天气,121.544273,39.151723,121.539874,39.145101,1582950795,1582950797,1582950818,1582953615,1582952057,c1c175b0d5ea59095736802128cc965e,3827ade86aa4f462929cd2c43793a2b2
10038649,0,2100075948131813367,正常天气,121.362149,39.291649,121.365834,39.284301,1582943809,1582943809,1582943833,1582945729,1582944529,ec6b23bdaad64cb0fd9dbed99763ce51,3657bc0c499d3328bf0253bd46d1b29f
10038649,0,2100075947389355540,正常天气,121.36268,39.28463,121.355674,39.298461,1582944459,1582944460,1582944493,1582947279,1582944808,061311f44af0e274d89b9607206d2cdc,9db78bbf7fda9c86af0ac2a5c351987e
10038649,0,2100075949778044436,正常天气,121.36268,39.28463,121.355674,39.298461,1582944544,1582944544,1582944553,1582947184,1582944796,061311f44af0e274d89b9607206d2cdc,9db78bbf7fda9c86af0ac2a5c351987e
10038649,2,2100075965738452981,正常天气,121.356474,39.289925,121.364414,39.281621,1582951145,1582951506,1582951513,1582953425,1582952225,029d9490197fb732eb8cea629da03239,bc1f9454b13fc926d7aea03e1ced0a00
10038649,2,2100075966107387895,正常天气,121.362149,39.291649,121.349064,39.283911,1582951623,1582951624,1582952053,1582953843,1582952404,7fc50de5926f63efb6cbcddac88cb874,3657bc0c499d3328bf0253bd46d1b29f
10038649,2,2100075966950213623,正常天气,121.362149,39.291649,121.364034,39.282611,1582951805,1582951806,1582951814,1582954025,1582952886,3e162cffc3b2f30f7e3b9fd23866728f,3657bc0c499d3328bf0253bd46d1b29f
10038649,2,2100075969681491959,正常天气,121.362149,39.291649,121.372264,39.269511,1582953111,1582953111,1582953373,1582957611,1582953951,9e3cfc48eccf81a0d57663e129aef3cb,3657bc0c499d3328bf0253bd46d1b29f
10038649,2,2100075969329596407,正常天气,121.362149,39.291649,121.380964,39.269911,1582953831,1582953832,1582953853,1582956591,1582954612,bdb63a81e3181bcfab4d1189f388363d,3657bc0c499d3328bf0253bd46d1b29f
10038649,3,2100075994225706999,正常天气,121.362149,39.291649,121.358904,39.280751,1582968859,1582968860,1582968973,1582971259,1582969700,4a5cf89256dc6bf7887fbbb20e8d6dea,3657bc0c499d3328bf0253bd46d1b29f
10038649,3,2100075997307078645,正常天气,121.356474,39.289925,121.345774,39.305231,1582968870,1582969231,1582969273,1582971870,1582969493,467390822a3e1c0861201d5da8a5dfb4,bc1f9454b13fc926d7aea03e1ced0a00
10038649,4,2100075999732336631,正常天气,121.362149,39.291649,121.363854,39.283321,1582970976,1582970977,1582971014,1582973256,1582971877,ce4ce3daaa2ab2aaf17b2ab245754601,3657bc0c499d3328bf0253bd46d1b29f
10038649,4,2100075999493621751,正常天气,121.362149,39.291649,121.352924,39.269951,1582971037,1582971037,1582971074,1582974337,1582971997,df83971673de5c8e71ca1e2645718dad,3657bc0c499d3328bf0253bd46d1b29f
10038649,4,2100075999836964855,正常天气,121.362149,39.291649,121.369224,39.267161,1582971390,1582971390,1582971433,1582974270,1582972170,c477108fd06febf0f70d0a8d27054ecb,3657bc0c499d3328bf0253bd46d1b29f
10038649,4,2100076001415399415,正常天气,121.362149,39.291649,121.368674,39.284711,1582971411,1582971411,1582971434,1582973631,1582972131,5772ab3fcd9069a45e3fd5c96cf95a3b,3657bc0c499d3328bf0253bd46d1b29f
10038649,4,2100076005269767584,正常天气,121.363836,39.28331,121.358624,39.281071,1582973293,1582973313,1582973353,1582976293,1582974213,117b5e858a19423002fe81f15ab3032a,9c602e5466f09e11fdccd80377ab0d2c
10038649,5,2100076006903187447,正常天气,121.362149,39.291649,121.358904,39.280751,1582974298,1582974298,1582974313,1582976578,1582975198,4a5cf89256dc6bf7887fbbb20e8d6dea,3657bc0c499d3328bf0253bd46d1b29f
10038649,5,2100076008184907767,正常天气,121.362149,39.291649,121.361444,39.293211,1582974695,1582974696,1582974733,1582976495,1582975596,47522f7965d171a317b4838879f148db,3657bc0c499d3328bf0253bd46d1b29f
10038649,5,2100076008956003744,正常天气,121.363836,39.28331,121.362964,39.276481,1582975912,1582975939,1582975993,1582978432,1582976839,030cab383ebb1994822fb7f7dccb990d,9c602e5466f09e11fdccd80377ab0d2c
10038653,0,2100075972467492379,正常天气,121.363066,39.29233,121.348154,39.302261,1582954499,1582954499,1582954534,1582956539,1582955099,9c7ac211d14ea4849541a4098dccf251,7016d4896b14d98f84ab75c688e6587c
10038653,0,2100075972618946549,正常天气,121.356474,39.289925,121.348574,39.302791,1582954893,1582955287,1582955293,1582957293,1582956247,9c7ac211d14ea4849541a4098dccf251,bc1f9454b13fc926d7aea03e1ced0a00
10038653,1,2100075994081724405,正常天气,121.356474,39.289925,121.369374,39.303661,1582967525,1582967886,1582968070,1582970285,1582968785,c44655cedf6d4b8ee0f14055e15f274c,bc1f9454b13fc926d7aea03e1ced0a00
10038653,1,2100075992504928247,正常天气,121.362149,39.291649,121.338844,39.296831,1582967667,1582967668,1582967713,1582970127,1582968388,657d7366a20a842e0d07aa446f280528,3657bc0c499d3328bf0253bd46d1b29f
10038661,0,2100075954631149294,轻微恶劣天气,121.424906,39.252809,121.426074,39.256101,1582947265,1582947270,1582947971,1582950600,1582948770,3fad9404a1660e55d9aadbc483a8c9e7,eaf6b1878045b0f5eb87540df4d1d218
10038661,0,2100075955285132479,轻微恶劣天气,121.42419,39.245926,121.421894,39.258261,1582947506,1582947550,1582947611,1582949966,1582948630,5148ccf579a66c79ab1d3371d664c1f9,d4f116c01debc35a2008b088c9ca07ef
10038661,0,2100075955297027822,轻微恶劣天气,121.424906,39.252809,121.425154,39.256581,1582947565,1582947572,1582947671,1582949365,1582948292,81ea6bdf2f6b74132b01867fb8968abb,eaf6b1878045b0f5eb87540df4d1d218
10038661,0,2100075958945154190,轻微恶劣天气,121.423725,39.251828,121.429754,39.247841,1582947803,1582947805,1582948211,1582951283,1582949005,59b0269c36da7c6b0861da30c7cc2025,cbcb3bd713a5a7414d4148cdbf1907f2
10038661,0,2100075959131997717,轻微恶劣天气,121.421871,39.254089,121.429504,39.248531,1582948500,1582948502,1582948511,1582951020,1582949762,59b0269c36da7c6b0861da30c7cc2025,418814ae1b69330acb74284c7aea517b
10038661,3,2100075982888208071,正常天气,121.389827,39.24728,121.398064,39.236821,1582961402,1582961405,1582961529,1582963802,1582962245,a5b43ef940c368f19741766378d521c5,8a5caa92bbc6f126f75df93ba2540983
10038661,3,2100075983849653959,正常天气,121.389827,39.24728,121.398234,39.238131,1582962086,1582962093,1582962129,1582964186,1582962933,a5b43ef940c368f19741766378d521c5,8a5caa92bbc6f126f75df93ba2540983
10039046,0,2100075938878555872,轻微恶劣天气,121.425159,39.252415,121.430244,39.260871,1582934531,1582934532,1582934588,1582937351,1582935231,3b5020bb891119b9f5130f1fea9bd773,e7689201c4d8b42b079ad022a2685b6c
10039046,0,2100075939461662432,轻微恶劣天气,121.425159,39.252415,121.425034,39.249211,1582934712,1582934712,1582934768,1582936992,1582935169,6335b62d99cc658ca951298cd80b9929,e7689201c4d8b42b079ad022a2685b6c
10039046,1,2100075940420781301,轻微恶劣天气,121.424182,39.247667,121.399354,39.240231,1582937595,1582937596,1582937649,1582939875,1582938376,7765b9e10ffdbd568bdd2e3b7358aaa6,5182b7c7b0020aecc23387d3986314ab
10039046,1,2100075942606865653,轻微恶劣天气,121.424182,39.247667,121.406904,39.244781,1582938267,1582938268,1582938310,1582940427,1582939108,15e122e839dfdaa7ce969536f94aecf6,5182b7c7b0020aecc23387d3986314ab
10039046,2,2100075943196755135,正常天气,121.42419,39.245926,121.405984,39.262421,1582941948,1582941952,1582944009,1582947000,1582943452,f41badecc2c8063ca3e6abed2c9b6048,d4f116c01debc35a2008b088c9ca07ef
10039046,2,2100075945580332782,正常天气,121.424906,39.252809,121.425344,39.255181,1582942143,1582942150,1582942209,1582943943,1582943050,005333820f17ed4bf20b575a3b16a630,eaf6b1878045b0f5eb87540df4d1d218
10039046,2,2100075944731084512,正常天气,121.425159,39.252415,121.432014,39.248611,1582942874,1582942875,1582942929,1582944914,1582943955,a18715f8cb55fa6811b97e9fa83a12e4,e7689201c4d8b42b079ad022a2685b6c
10039046,2,2100075946629629851,正常天气,121.42049,39.253781,121.396324,39.265941,1582943507,1582943509,1582943950,1582947000,1582945009,33ef02545917e86ce42f02ac43979dff,a77602e18da1083c232940de69d54ac0
10039046,4,2100075959134750240,轻微恶劣天气,121.424545,39.252117,121.432514,39.262431,1582948504,1582948511,1582948571,1582952764,1582949831,3b5020bb891119b9f5130f1fea9bd773,1d773374ba09dfec191946bab695b112
10039046,4,2100075960044520593,轻微恶劣天气,121.424513,39.246358,121.422644,39.270421,1582948517,1582948818,1582948930,1582952057,1582950258,08dbaa341cab9e51bff42a1d18a8d882,3438a2eeb678dce2f9d941f3442a686c
10039046,4,2100075961589138677,轻微恶劣天气,121.424182,39.247667,121.428434,39.260681,1582948884,1582948885,1582948931,1582952664,1582950505,ecdc3143bbe8eb7d70b3b2e23927f711,5182b7c7b0020aecc23387d3986314ab
10039046,4,2100075960404412142,轻微恶劣天气,121.424906,39.252809,121.429374,39.259931,1582948947,1582948950,1582948990,1582951527,1582949550,143c34356227d24cbd6357679ddd9d0e,eaf6b1878045b0f5eb87540df4d1d218
10039046,4,2100075959220208687,轻微恶劣天气,121.425334,39.251902,121.424204,39.267411,1582949045,1582949046,1582949050,1582952285,1582950186,692d1f7fcdf37dffae80ec247a09be96,6cdeabe965f85571b98854e37d3e0329
100429202,2,2100075966974559257,正常天气,121.374011,39.135793,121.386164,39.133081,1582951922,1582951923,1582951965,1582954022,1582952823,4163e31b906c2ecd98b8488e4c41068f,af62ecc30266ad244ea54e3af929539b
100429202,2,2100075967279105605,正常天气,121.374269,39.135742,121.369514,39.135191,1582952311,1582952312,1582952506,1582954111,1582952801,a390eacd77167cf85c40c6a1479148e4,840f626ac9a52ccd4f2a74036ee5d23e
100429202,2,2100075968055608345,正常天气,121.374011,39.135793,121.386624,39.124671,1582952459,1582952459,1582952565,1582954979,1582953359,af23f892d1040f5bbed682c25381242c,af62ecc30266ad244ea54e3af929539b
100429202,2,2100075968905774584,正常天气,121.378464,39.123372,121.380004,39.139491,1582952863,1582952869,1582953046,1582955503,1582953829,4d170f01b0c287177176541a0899a5a2,886937d7f08614673b24e6bb23597c91
100429202,2,2100075968729056869,正常天气,121.377737,39.124756,121.378604,39.127171,1582953509,1582953510,1582953526,1582955309,1582954230,02fea5a2f8f3884eaf0ed626ac361628,95067e6f98fdfecd88d45c12f6fe5612
100429202,2,2100075971442542337,正常天气,121.378359,39.124936,121.368304,39.139841,1582953529,1582953532,1582953585,1582955929,1582954372,571e8b9d9a6ae258e6dd3a69af5bbe14,92ffa58e6c382a69b8b647bf9648f6bd
100429202,2,2100075969986003973,正常天气,121.378814,39.122571,121.366674,39.146301,1582953605,1582953615,1582954066,1582956485,1582954575,5a01f0597ac4bdf35c24846734ee9a76,af1d92c19055d9e810b7bc81701e7845
100429202,3,2100075972985521921,正常天气,121.378359,39.124936,121.375824,39.138531,1582955840,1582955845,1582955866,1582957820,1582956625,2192890582189ff58ddbb2b79900f246,92ffa58e6c382a69b8b647bf9648f6bd
100429202,3,2100075974820824829,正常天气,121.373836,39.135808,121.395474,39.140431,1582956560,1582956561,1582956585,1582960880,1582957461,d09b9bb192e03903963e35b40e3f0399,cac71f95ad4c2a99b909790a0853c65a
100429202,4,2100075977707816273,正常天气,121.385584,39.140803,121.375614,39.123151,1582957823,1582958044,1582958085,1582960583,1582959124,b624cb925e8f61eecb61a4c2d440760b,0b4d38b62f8b3d296608817335f8e96d
100429202,4,2100075978067085053,正常天气,121.373836,39.135808,121.371904,39.111041,1582958011,1582958012,1582958265,1582962331,1582958912,579d10d5e90dfe3112b21430edfc0b32,cac71f95ad4c2a99b909790a0853c65a
100429202,4,2100075979928897049,正常天气,121.37774,39.118045,121.392214,39.119371,1582959272,1582959273,1582959644,1582961732,1582960173,c69681a047951d83cb8451b6e119ad58,21decb4d969727f27784302d34d45334
100429202,4,2100075979648828953,正常天气,121.37774,39.118045,121.402474,39.136771,1582959525,1582959526,1582959645,1582962585,1582960426,77c493ec14246d748db3ee8fce0092db,21decb4d969727f27784302d34d45334
100429202,4,2100075981370656081,正常天气,121.385584,39.140803,121.386774,39.122721,1582960573,1582960807,1582960845,1582963453,1582962067,2b9a81d6c9764defac70578d5d0c48ce,0b4d38b62f8b3d296608817335f8e96d
100429202,4,2100075981075547473,正常天气,121.385584,39.140803,121.391384,39.115421,1582961114,1582961345,1582961385,1582964594,1582962545,b4ba38e8b87a465404d49b19f9ce7462,0b4d38b62f8b3d296608817335f8e96d
100429202,4,2100075980876252283,正常天气,121.378204,39.123002,121.380444,39.126781,1582961837,1582961839,1582961985,1582965857,1582963279,06b9c839ba4abb3c78bb262aa49e92aa,9ce4eb7854b68052a15bd2e4a5026c03
100429202,4,2100075983910896964,正常天气,121.378037,39.123166,121.376684,39.129011,1582962019,1582962384,1582962405,1582964119,1582963459,32a4f2eaa67b8e04fc005c8da167e53e,702b538be8296bf009067d1f13bb0075
100429202,4,2100075982693435211,正常天气,121.378509,39.122531,121.343454,39.144231,1582962309,1582962466,1582962525,1582965849,1582963906,90c70a60382b076cc9fee71a11a07fd8,834f4cb8b152d12ab8b77746a1dbe7bf
100429202,4,2100075984195159165,正常天气,121.377646,39.126573,121.360074,39.132561,1582962457,1582962458,1582962465,1582965277,1582963178,cb7564dfc7297b95f33ef2d63d7f6e96,9dffb81a635c5f5ac3de6431fdc7239f
100429202,4,2100075983698920580,正常天气,121.378204,39.123002,121.379194,39.126521,1582962633,1582962633,1582962645,1582964913,1582963353,d689484bc92db070915273f1f7a1f651,5cf9f228dafd3dfc28d853ef168fbaa1
100429202,5,2100075994370082373,正常天气,121.374269,39.135742,121.367184,39.137761,1582967987,1582967988,1582968046,1582970087,1582968888,3c462fbfc450ce52a010a467d8f60f48,840f626ac9a52ccd4f2a74036ee5d23e
100429202,5,2100075994443679141,正常天气,121.373504,39.135871,121.365124,39.141241,1582968185,1582968190,1582968226,1582970045,1582968850,2dd1f4d3a275db0422cb0561425e5721,f6f667fc164958c4f22e25e2ed011339
10043801,0,2100075949807273384,正常天气,121.449144,39.115701,121.439374,39.120641,1582944685,1582944687,1582944735,1582947565,1582945647,b68326e36500c5dafc0126b50221d6bf,85e3bf62f2c3a80bb93755fc8b242ae3
10043801,0,2100075949527762344,正常天气,121.449144,39.115701,121.436384,39.117451,1582944854,1582944856,1582944916,1582947734,1582945876,31b161d157ae103718c8508d05d11e5c,85e3bf62f2c3a80bb93755fc8b242ae3
10043801,0,2100075949383583144,正常天气,121.449144,39.115701,121.439374,39.120641,1582944907,1582944909,1582944915,1582947487,1582945809,b68326e36500c5dafc0126b50221d6bf,85e3bf62f2c3a80bb93755fc8b242ae3
10043801,0,2100075951141258664,正常天气,121.449144,39.115701,121.436384,39.117451,1582945282,1582945284,1582945335,1582947742,1582946544,31b161d157ae103718c8508d05d11e5c,85e3bf62f2c3a80bb93755fc8b242ae3
10043801,0,2100075952126494162,正常天气,121.449187,39.115724,121.410544,39.126241,1582945775,1582945776,1582945815,1582948655,1582946376,76c76c2dbf41bd238a46a49460fcaefd,17819a38165034124b145945e34c520b
10043801,0,2100075951351760420,正常天气,121.441684,39.119123,121.420934,39.133171,1582946195,1582946195,1582946235,1582949495,1582947275,0a5db8bb221329d101b1418b340ad694,aeadde68feb9017d6c1e4f7ea580df72
10043801,0,2100075956021265489,正常天气,121.434007,39.123313,121.411794,39.127961,1582946851,1582946852,1582946896,1582950691,1582948652,df2454e6c116dda9818e402349d78dc9,df4d65ec600752fa881069d428a94b29
10043801,0,2100075958740747405,正常天气,121.44407,39.126844,121.435674,39.120841,1582948204,1582948207,1582948644,1582950424,1582949287,370c3b8a135ace941102debcdeafb307,94c7c31d3fac921b90d999ae14610f6b
10043801,0,2100075962468402764,正常天气,121.433778,39.120198,121.448324,39.142521,1582950066,1582950072,1582950073,1582952586,1582950792,336a58005e8ff6ca65b3fb113954a67a,e778fbef04b78fc4c0952ecf238b8cfa
10043801,1,2100075966132750196,正常天气,121.454064,39.131381,121.437624,39.122471,1582951736,1582951737,1582951754,1582955276,1582953177,f7c1726972fd62fbd611159e9b931714,9495d34692742fd1b96fdf0a7d332bb6
10043801,1,2100075967905859229,正常天气,121.454071,39.131391,121.444714,39.119841,1582951878,1582951880,1582951935,1582954998,1582953320,ff7e02abff1f7b53935a4a4fc21ce1f4,2a105749194b245dc8fed18134ced7a6
10043801,1,2100075971498083464,正常天气,121.436422,39.118897,121.462494,39.127011,1582953793,1582953799,1582953852,1582956433,1582954879,46419148eaea79f92bded15443c65abb,0b3e847be230a6a347fe0c6695e47088
10043801,2,2100075985365600079,正常天气,121.45496,39.119696,121.453944,39.133021,1582963766,1582963776,1582963935,1582966406,1582964736,e9c8b3fe59faa1ac4a2d1e554800f77c,4e132580f76eb65c6b83848bf0ec855b
10043801,2,2100075986268161486,正常天气,121.449196,39.115998,121.456404,39.140301,1582964097,1582964098,1582964174,1582967397,1582965118,0be8f64fcc7dcc5ac75d53f2e992a896,8c680c47be7b4466a10864a3684d9f06
10043801,2,2100075986053104820,正常天气,121.454173,39.131383,121.455774,39.143281,1582964641,1582964642,1582964654,1582967221,1582965242,806c605c2a3b9cbae4124c0fcbdb979a,4eb972b3a89a79396790cb6e182b8fdb
10043801,2,2100075988289783453,正常天气,121.454071,39.131391,121.472284,39.135251,1582965597,1582965599,1582966035,1582969077,1582967219,d1f4b8e4314229e16262512a72ba369a,2a105749194b245dc8fed18134ced7a6
10043801,2,2100075991091447291,正常天气,121.452841,39.131685,121.468194,39.130371,1582966357,1582966360,1582966395,1582968757,1582967440,d7ceb6ca356a8bf283bdca2d2c32b55c,fdcb77a51fb333d5bd2f1cdc4a0a9b7c
10043801,3,2100075998064117324,正常天气,121.433778,39.120198,121.453334,39.112941,1582969781,1582969786,1582969875,1582972721,1582970686,3737aabe3a342f5030657bfe97acb76c,e778fbef04b78fc4c0952ecf238b8cfa
10043801,3,2100075997564143180,正常天气,121.433778,39.120198,121.450274,39.113411,1582970128,1582970134,1582970176,1582972528,1582971034,3ab4b62760f7236ffbb103e57158f3da,e778fbef04b78fc4c0952ecf238b8cfa
10043801,3,2100076000363677374,正常天气,121.440624,39.117956,121.434584,39.113841,1582971137,1582971142,1582971195,1582973717,1582972222,b6c54cbc071d5f246b8e5fe3635748e2,dd2e7c85f35e291c523c1fc4f2cd8f60
10043801,3,2100076000802276629,正常天气,121.433024,39.115271,121.415434,39.118961,1582971959,1582971960,1582972036,1582974359,1582973040,7cfdf95c73b2f283c4a6b3b449de7a47,fe7be5ada64f5d3b179ad4eea6d160de
10043801,4,2100076014068336512,正常天气,121.439564,39.117173,121.439244,39.125071,1582981091,1582981091,1582981094,1582983431,1582981991,36319116d61690676e4de466d7a6e414,038321bee5fd808bef3b3baa45c97eab
10043801,4,2100076015010612798,正常天气,121.437654,39.124855,121.430664,39.106451,1582981714,1582981715,1582981754,1582984414,1582982615,327a684aa279c8eeacaefc95c613f774,7154a8f9e9e2a258f79f2734db2bee6b
10053442,0,2100075939210003700,轻微恶劣天气,121.453525,39.259301,121.464724,39.264781,1582935166,1582935172,1582945509,1582947900,1582936672,2324beb2d8068f30dea604427d471777,dcaecbaf37e909900f137406a50a19b5
10053442,0,2100075950711146434,正常天气,121.462828,39.261555,121.469534,39.265501,1582946065,1582946066,1582946110,1582948225,1582947326,dc76606330f96272f302ca0109754169,1923c61c1de1dc220503827ff7298426
10053442,0,2100075954167284739,正常天气,121.450916,39.26504,121.456744,39.272261,1582946647,1582946649,1582946950,1582948987,1582947909,a2f5d85defca5e80ee517cbfca50635e,5a5de6cfd113fcacad2bdb317e43bd19
10053442,0,2100075956054262787,正常天气,121.450916,39.26504,121.458534,39.272501,1582946934,1582946935,1582946949,1582949394,1582948195,a2f5d85defca5e80ee517cbfca50635e,5a5de6cfd113fcacad2bdb317e43bd19
10053442,0,2100075958001304668,正常天气,121.451024,39.265011,121.464724,39.264781,1582947612,1582947613,1582947911,1582949952,1582948573,2324beb2d8068f30dea604427d471777,a53742cd13e9a0683415ae55724fef99
10053442,0,2100075958029059990,正常天气,121.461752,39.2714,121.465804,39.263771,1582947667,1582947668,1582947971,1582949887,1582948568,b43d374d3a4454afe4de32581f6604a9,b801f70e23cf75d0119420e9687753da
10053442,0,2100075958812640907,正常天气,121.470683,39.263708,121.473154,39.255771,1582948513,1582948514,1582948990,1582951093,1582949954,4db0f8b0fc895da263fd77fc8aecabe4,08f07c3e75d8728b2c9d9a59cf670c46
10053442,0,2100075961685542707,轻微恶劣天气,121.462864,39.261322,121.483654,39.254941,1582949210,1582949210,1582949230,1582951790,1582950110,188242a97e550fdd12ddb9a8e6713c81,50b4ef0363bdf65c73a8cc3dcfd92010
10053442,0,2100075965975200991,轻微恶劣天气,121.479152,39.253094,121.456324,39.259841,1582950946,1582950951,1582951149,1582953946,1582951851,db475ffb668d17e9f6cfbd4f6b292aa9,c76da347ba4c875ff62116f230b7e04b
10053442,0,2100075966077142766,轻微恶劣天气,121.479239,39.24971,121.446744,39.257491,1582951400,1582951409,1582951450,1582954820,1582952189,3e084d51fde11598c4268a0079b32447,912eb74578515aff3ff756e0ecf0cecb
10053442,1,2100075967437866431,轻微恶劣天气,121.460516,39.251293,121.443274,39.252381,1582953002,1582953003,1582953129,1582955643,1582954323,21a86d75aad3410f2b4efd8f53f6da91,bd3e676e6a5fdeb31287d86fa0b2cc28
10053442,1,2100075969873971027,轻微恶劣天气,121.461276,39.249678,121.447784,39.252551,1582953089,1582953092,1582953130,1582955609,1582954052,90b2cb1756e24bf3a1c8324fab24c9ea,de79dbf4b47c33e55e2f11d5d6b04982
10053442,2,2100075992363140853,正常天气,121.462867,39.261262,121.473674,39.254311,1582967943,1582967954,1582968069,1582970343,1582968674,4db0f8b0fc895da263fd77fc8aecabe4,10a1bf4860b450eca51cbe37576caa16
10053442,2,2100075992894113365,正常天气,121.467333,39.259721,121.469534,39.252351,1582968256,1582968256,1582968310,1582970776,1582969156,59a7282f2d4b127417b62c9ff1fe7252,8a405ee414eda4ebff4a329b213b6c59
10053442,2,2100075994816513781,正常天气,121.462867,39.261262,121.473654,39.255541,1582968401,1582968414,1582968429,1582970861,1582969134,4db0f8b0fc895da263fd77fc8aecabe4,10a1bf4860b450eca51cbe37576caa16
10053442,2,2100075998041507778,正常天气,121.462828,39.261555,121.456114,39.247111,1582969651,1582969652,1582969750,1582972411,1582970732,6ea863455b5207388ecc099497055af1,1923c61c1de1dc220503827ff7298426
10053442,2,2100075997491496587,正常天气,121.470683,39.263708,121.462474,39.248371,1582969924,1582969926,1582969930,1582973164,1582971366,a7f36b6e0232e042b193af00255a84f5,08f07c3e75d8728b2c9d9a59cf670c46
10053442,2,2100076001887192915,正常天气,121.461276,39.249678,121.456004,39.247631,1582971226,1582971232,1582971309,1582973746,1582972492,6ea863455b5207388ecc099497055af1,de79dbf4b47c33e55e2f11d5d6b04982
10053442,3,2100076003601810879,正常天气,121.460516,39.251293,121.453064,39.259981,1582972681,1582972681,1582972689,1582975261,1582973401,703b78195510df46503397072f14bb50,bd3e676e6a5fdeb31287d86fa0b2cc28
10053442,3,2100076005223466076,正常天气,121.451024,39.265011,121.442934,39.270911,1582973188,1582973189,1582973229,1582975228,1582974269,893e03d8f4aa64d6a2bbc2551529f11f,a53742cd13e9a0683415ae55724fef99
10053442,3,2100076004991173724,正常天气,121.451024,39.265011,121.442934,39.270911,1582973247,1582973248,1582973289,1582975227,1582974328,893e03d8f4aa64d6a2bbc2551529f11f,a53742cd13e9a0683415ae55724fef99
10053442,3,2100076004046439516,正常天气,121.451024,39.265011,121.442934,39.270911,1582973294,1582973295,1582973349,1582975394,1582974375,893e03d8f4aa64d6a2bbc2551529f11f,a53742cd13e9a0683415ae55724fef99
10053442,3,2100076003753067612,正常天气,121.451024,39.265011,121.442934,39.270911,1582973348,1582973350,1582973409,1582975208,1582974430,893e03d8f4aa64d6a2bbc2551529f11f,a53742cd13e9a0683415ae55724fef99
10053442,3,2100076007129285724,正常天气,121.451024,39.265011,121.453074,39.248231,1582974255,1582974256,1582974609,1582977075,1582975396,aaa98de3bf6a9d8dadcad9709cb8bc30,a53742cd13e9a0683415ae55724fef99
10063192,0,2100075944636417150,正常天气,121.483819,39.06463,121.511094,39.069941,1582942112,1582942112,1582945125,1582947900,1582943612,c4028225a898dce6569a8917b9ba3348,7b22b84bfcae98d151aca378c80c0ae9
10063192,0,2100075947215521529,正常天气,121.479704,39.072481,121.499864,39.067961,1582943622,1582943624,1582943680,1582947642,1582944884,dee122e1d2324b7fde35bec533bebbb6,bd7b01e0484e820803a9a7ca2aa7aff7
10063192,0,2100075948013192385,极恶劣天气,121.471546,39.064053,121.501744,39.076051,1582944600,1582944601,1582945172,1582948260,1582945741,6ea371308f8d26d3f9fa682e7fa25c90,5bedbacd032c7253a231920465a82045
10063192,0,2100075948355093697,极恶劣天气,121.471546,39.064053,121.483934,39.064731,1582944648,1582944649,1582945164,1582947468,1582945789,8a1d694707eb0fefe65871369074926d,5bedbacd032c7253a231920465a82045
10063192,2,2100075991579232210,正常天气,121.483627,39.064165,121.477124,39.063211,1582967075,1582967082,1582967140,1582968995,1582968162,120b18a5e010d11df16f1506e2f66a5c,dea49c496ce4973ea1b1e3224cd6d429
10063192,2,2100075992734598349,正常天气,121.48395,39.0646,121.477504,39.062661,1582967281,1582967283,1582967320,1582969681,1582968183,9725ed8554d47c51465705cd9dca9ed4,bb69771d5fde6210a7cba6038ae27691
10063192,2,2100075992410162593,正常天气,121.482667,39.063865,121.470734,39.063401,1582967404,1582967404,1582967440,1582969684,1582968184,db89f406875c1dfdfde3d928b78cd278,2a7f207104da247c552094ce64f1cf50
10063192,2,2100075995656127927,正常天气,121.480444,39.063541,121.470834,39.062251,1582968432,1582968433,1582968580,1582970832,1582969513,db89f406875c1dfdfde3d928b78cd278,96677b5ebd4a40ec3f5618a57305fd4c
10063192,2,2100075995771110449,正常天气,121.477749,39.055151,121.471394,39.063531,1582968989,1582968991,1582969001,1582972169,1582970251,db89f406875c1dfdfde3d928b78cd278,9d7954c8ce07bf7544ee881a16e8a6db
10063192,2,2100075996087452689,正常天气,121.477354,39.054591,121.471784,39.059721,1582969391,1582969395,1582969420,1582971611,1582969995,db89f406875c1dfdfde3d928b78cd278,0b7b490b94eedea2dcc91636e817da2d
10063192,2,2100076000589154038,正常天气,121.472078,39.063704,121.461264,39.062351,1582970731,1582970733,1582970981,1582972771,1582971513,2e5783c1af37b2f1e62abb3f49296a8e,b9736654ad3e1a7ae44d23f430cda218
10063192,2,2100076002381465015,正常天气,121.480444,39.063541,121.480734,39.056731,1582971895,1582971896,1582971941,1582974175,1582972976,0b8cc4119e2f861e1f48bf2f6f9738ce,96677b5ebd4a40ec3f5618a57305fd4c
10063192,2,2100076003558557656,正常天气,121.481528,39.056733,121.479834,39.056171,1582972358,1582972359,1582972421,1582974399,1582973079,0b8cc4119e2f861e1f48bf2f6f9738ce,f8037cbf534139f7f0a408c964fa1b36
10063192,2,2100076005606262565,正常天气,121.482381,39.052202,121.479194,39.060191,1582973066,1582973066,1582973080,1582975826,1582974506,63566762fc660c35d20c804ebd5edbf6,66e45dce347d12b7327ab809f15ccc0d
10063192,2,2100076007791166570,正常天气,121.482446,39.052262,121.487094,39.031981,1582974218,1582974218,1582974279,1582976738,1582975058,0205e35c5fd0bb77bc6accc39283620e,ddcf32a722f69e1cbf89396934461245
10067592,0,2100075945672213784,正常天气,121.581602,39.210951,121.569364,39.216221,1582942889,1582942892,1582942925,1582945409,1582943972,2abe326c715e57fd40a097d8b298caa0,4b67b06781002541a4d185591c94c347
10067592,0,2100075945448113432,正常天气,121.581602,39.210951,121.573654,39.213781,1582942930,1582942932,1582942986,1582945330,1582944012,d574c83691c6c21b9e9a96fe589b3077,4b67b06781002541a4d185591c94c347
10067592,0,2100075946136569223,正常天气,121.574201,39.213941,121.568214,39.210671,1582944172,1582944175,1582944306,1582946512,1582945075,9c00300f5c8776542c9370708d354dc2,d96405622d4ca20c9d05dd915ec2b9cd
10067592,1,2100075943009092841,正常天气,121.575775,39.210248,121.578374,39.204931,1582940025,1582940027,1582945747,1582947900,1582941527,04da116d7ae9d03c7a5e95ab02e1d97d,426ab2bdeb25e959cb46c7c717452d1e
10067592,1,2100075950989575401,正常天气,121.575775,39.210248,121.578154,39.198391,1582945574,1582945589,1582945627,1582948994,1582947209,a5d64aa03dfec9bacaf2f36ec474a504,426ab2bdeb25e959cb46c7c717452d1e
10067592,1,2100075957249345218,正常天气,121.583197,39.200544,121.572674,39.209161,1582948155,1582948160,1582948209,1582951515,1582949420,3f97239d2c5ca9f21175020fde4edc9e,e4a504f32a2aff54eaeaa460a525c584
10067592,1,2100075960001333236,正常天气,121.570142,39.212029,121.555504,39.199711,1582948611,1582948612,1582948868,1582952212,1582950052,eb930e119e2e5e4236af15bebf461fcc,e90e602183ea3d5cc3074545c925d182
10067592,1,2100075960658167796,正常天气,121.570142,39.212029,121.547614,39.202791,1582948694,1582948695,1582948869,1582952295,1582949955,a6b4e84b85a0f916af1878a663adcc44,e90e602183ea3d5cc3074545c925d182
10067592,1,2100075959214343480,正常天气,121.569951,39.212292,121.569784,39.207771,1582949008,1582949009,1582949048,1582950868,1582950089,d13242de2c2f8292a76b9e6c41344a5a,aac423ff30780797beac5ffc902b30e0
10067592,2,2100075990259795428,正常天气,121.591109,39.208194,121.594224,39.220741,1582967183,1582967184,1582967226,1582969943,1582968264,302b1e2230ed0dff6b2a8f05eeb1ed6e,9365213044f36704f788833712a50fad
10067592,2,2100075990723167716,正常天气,121.591109,39.208194,121.594474,39.219211,1582967538,1582967540,1582967586,1582970238,1582968440,dd8c23e89c2070114ea99ebf1e602d07,9365213044f36704f788833712a50fad
10067592,4,2100076008559216048,正常天气,121.567071,39.214435,121.602084,39.191071,1582975121,1582975122,1582975205,1582978001,1582975722,23d36110725ab9e91a556937eff064ee,710498b4afd609052faf6fb154956a87
10067592,4,2100076006129338096,正常天气,121.58187,39.203354,121.601684,39.188611,1582975264,1582975265,1582975325,1582977784,1582976045,c15ed9f820121f0982866c025ef6a0de,4ae42a69aba1ef89b25bc379cfa014b0
100681730,0,2100075993419745016,正常天气,121.601105,39.137024,121.596484,39.151161,1582967332,1582967914,1582967945,1582976332,1582968772,88ae6372cfdc5df69a976e893f4d554b,8944ec8db309614c49fc787d3ba12f44
100681730,0,2100075999044306680,正常天气,121.601105,39.137024,121.584294,39.149191,1582969673,1582970258,1582970287,1582978673,1582973858,30c841a556a08c42e2031f2b1a60649c,8944ec8db309614c49fc787d3ba12f44
100681730,0,2100075998989092266,正常天气,121.595274,39.138101,121.595264,39.146331,1582970082,1582970082,1582970105,1582971882,1582970922,63b5afeddf3fc002ceedea9469e77970,f564512e763d0391ae9727b11e4f0357
100681730,0,2100075999234459263,轻微恶劣天气,121.598097,39.135565,121.581504,39.149821,1582971051,1582971057,1582971066,1582974531,1582972017,9ce7c01b297899021b4da548e623c511,517a77326641d1f72454f13adca66498
100681730,0,2100076001874019569,轻微恶劣天气,121.590793,39.132154,121.586884,39.151111,1582971166,1582971167,1582971187,1582975486,1582972427,b913192cc9f868a69a3761b86ecac0a5,4d904e24ed9c62d35539c4abbc14b6ac
100681730,0,2100076001048069289,轻微恶劣天气,121.595654,39.13694,121.583804,39.147031,1582971713,1582971714,1582971726,1582974653,1582972614,553ed1e5d4aca7ef53dedeb19fe68a45,5f4daff1c024a22c95d3e25df4be80dd
100681730,1,2100076008432731491,正常天气,121.597676,39.133571,121.587954,39.130451,1582974497,1582974499,1582974545,1582976897,1582975219,c6a01432c8138d46ba39957a8250e027,2f54f9dcebef6fe54f6ebff7d3dbba93
100681730,1,2100076006343378924,正常天气,121.590083,39.130361,121.615364,39.140321,1582974869,1582974870,1582974905,1582977509,1582975590,f47748f9845310f6c06a51efb26e5009,932ff6b73f1cc749a085d639e918c8c4
100799026,0,2100075970010252521,正常天气,121.575775,39.210248,121.589314,39.203121,1582953724,1582953725,1582953786,1582956724,1582955105,0f1ed6ea2e3cdb41bedba41c44413e21,426ab2bdeb25e959cb46c7c717452d1e
100799026,0,2100075972224714547,正常天气,121.583638,39.200297,121.578574,39.202981,1582954734,1582954735,1582954745,1582956534,1582955635,04da116d7ae9d03c7a5e95ab02e1d97d,8247e0827bd9bb82ca71d99a27ae43fa
100799026,1,2100075980815238628,正常天气,121.591109,39.208194,121.616714,39.196341,1582961513,1582961515,1582961526,1582964393,1582962415,9d4a52906cfef1b0a00e1a9e112f4604,9365213044f36704f788833712a50fad
100799026,1,2100075980837815916,正常天气,121.592808,39.20266,121.620924,39.196941,1582961614,1582961615,1582961645,1582964674,1582961772,cb751f8a8e4b1c30f085bbdc4f79bf35,37f9a9fac528761589a5743049958aaa
100799026,1,2100075981799818639,正常天气,121.593345,39.204453,121.608974,39.200421,1582961745,1582961750,1582961765,1582964205,1582962590,2b15a78da9135176ea87fd379ead2070,08d351b91b1079d7bbe20fcfd2cfb781
100799026,2,2100075984470017680,正常天气,121.593089,39.203091,121.581764,39.197511,1582964445,1582964446,1582964466,1582966845,1582964727,abb4a440eab885fa73caa83f66f6bcc4,bd8bb7b123a026208c5ee128bb454396
100799026,2,2100075989184972573,正常天气,121.573761,39.196675,121.570894,39.199861,1582965165,1582965750,1582965787,1582974165,1582967145,2341fc2867e0a66447dac610734570b4,0a42f49782cf1ff65151679c763aff60
10081729,0,2100075937920026510,正常天气,121.523959,39.145623,121.543084,39.145821,1582934844,1582934844,1582938639,1582940700,1582936898,f7782ed19afc090f3ecd646e91c9baf9,0d21080edfe6bd27265a40a0bb431596
10081729,0,2100075939874047889,正常天气,121.53114,39.151851,121.526044,39.156681,1582937391,1582937392,1582937440,1582939311,1582938472,05053b88a99eb23b8b1080f11c5a94bf,e2a75dc7b9162f6585bb1cd50ceb43eb
10081729,0,2100075942245861262,正常天气,121.523959,39.145623,121.543784,39.142821,1582937486,1582937487,1582937799,1582940426,1582938747,86e60f09c9a193241d95567e38431b3d,0d21080edfe6bd27265a40a0bb431596
10081729,0,2100075940443129823,正常天气,121.518509,39.158833,121.517864,39.148031,1582937925,1582937926,1582937979,1582940805,1582938526,2e84f63ba32500f265414f5e34128dd0,6daab27928ff5b8f18f8c8257755198c
10081729,0,2100075941564679424,正常天气,121.540846,39.151316,121.521674,39.153271,1582940335,1582940336,1582940499,1582942195,1582941056,90299881396ebf70ff0d7b23019bd893,c7d29a336f149fe8d299d01588370087
10081729,1,2100075946741696199,正常天气,121.54311,39.142555,121.554804,39.145911,1582944088,1582944094,1582945900,1582948800,1582945594,363fa347bfe520bc9430a5d1b11fe934,5a99a177fc3dfb15c5f43640b65e5854
10081729,1,2100075956916061648,正常天气,121.544273,39.151723,121.545634,39.157971,1582947805,1582947806,1582947820,1582949905,1582948886,cd4f8227eb0b034ece23bcc0a786f15a,3827ade86aa4f462929cd2c43793a2b2
10081729,1,2100075958571959515,正常天气,121.540576,39.160513,121.559074,39.173221,1582948487,1582948659,1582948780,1582951307,1582949379,26ac89ae90b81cbd5ba1953da888d8a3,191191e5b3d30daaedefc550ceb84da7
10081729,2,2100075964466824343,轻微恶劣天气,121.542448,39.159226,121.544894,39.157991,1582951134,1582951134,1582951180,1582953354,1582952034,1929ce83b549070505f72de142270036,5210a4d5f10bf2a1ebbe9a9a30a84d82
10081729,2,2100075965711844608,轻微恶劣天气,121.540846,39.151316,121.529774,39.148181,1582951385,1582951386,1582951420,1582953905,1582952106,d75c0196163e981fe313fc6ac1480b0a,c7d29a336f149fe8d299d01588370087
10081729,2,2100075965438493985,轻微恶劣天气,121.54221,39.159291,121.526764,39.134961,1582951512,1582951513,1582951540,1582955652,1582952773,a19ed435f512f71fd1a26dc2de3ce275,d54c1e023d809d0b3a671b7fe41ec414
10083928,0,2100075962963428925,正常天气,121.588677,39.209827,121.586324,39.211071,1582949642,1582949643,1582949658,1582951443,1582950183,4d32842047717ad462fc3cf13f51a05c,97dd6c05843f8ab53290c2b6109198d9
10083928,0,2100075962770916925,轻微恶劣天气,121.588677,39.209827,121.586794,39.212001,1582950062,1582950063,1582950077,1582951862,1582950603,97f6fd9045d1c85a49efd49259d1ebd0,d1cba9a16a091e752068976e29492e60
10083928,1,2100075976694728600,正常天气,121.591382,39.215175,121.585334,39.212641,1582956940,1582956941,1582957305,1582958741,1582957086,64ecf045d043f643d6e5bb000dd2542d,f5093c252ad10b9550059254ae7e7ae4
10083928,1,2100075974260360765,正常天气,121.588677,39.209827,121.586594,39.211451,1582956989,1582956990,1582957038,1582958789,1582957530,fbfbe809a9c781b30d01a98c9a5fa68c,d1cba9a16a091e752068976e29492e60
10094682,1,2100075989675541942,正常天气,121.540073,39.134559,121.519114,39.140601,1582966973,1582966974,1582967000,1582969853,1582967874,e97fc3c59adddc6dffe61cb4a79e750b,10dfdae98308e5b3e621e8dcf2c04d9f
10094682,1,2100075993239848574,正常天气,121.518982,39.133212,121.527074,39.121071,1582968209,1582968231,1582968380,1582971449,1582969311,8855e0fc13c9ec34655897a3bba20cd9,80e1b9e579ae4b88809b4adf7f5246e4
10094682,2,2100075998271374675,正常天气,121.524997,39.130304,121.522714,39.139541,1582969574,1582969580,1582969639,1582971794,1582970480,1fb3c9f216110de71745c4d9722ffbb1,55197f793437ec2610d6a5758d024c1b
10094682,2,2100075997497558580,正常天气,121.5235,39.133003,121.524394,39.145601,1582969965,1582969966,1582969999,1582972125,1582970686,8f0c838d18028a34bb3f08991b5f7fe8,7a2053cb8e686f17e251228aeab89fea
10094682,2,2100075996228290100,正常天气,121.5235,39.133003,121.524394,39.145601,1582970106,1582970106,1582970120,1582972326,1582970826,8f0c838d18028a34bb3f08991b5f7fe8,7a2053cb8e686f17e251228aeab89fea
10094682,3,2100075999567120084,正常天气,121.529954,39.140737,121.534684,39.143901,1582971308,1582971309,1582971320,1582974728,1582973109,0b869feb03a443d6682324a1f89f36c6,14b9cf7c06db2e86bdedff40b02bd7a4
10094682,3,2100076003853567110,正常天气,121.539482,39.135252,121.546454,39.138521,1582972271,1582972276,1582972400,1582974431,1582973176,938c4b066556256cecd307342b7b7791,2f7736dcc94e2deb5db9c248c7402b0b
10094682,3,2100076003326297826,正常天气,121.539939,39.134665,121.549604,39.138131,1582972709,1582972714,1582972760,1582975469,1582973914,95903a7855383e0df1b2acc8836ab1b9,7f263f8610ef82c2398c55b20cb07e86
10094682,4,2100076008441513266,正常天气,121.546049,39.138608,121.543434,39.127571,1582974525,1582974526,1582974560,1582977945,1582975306,a11bdd262065428ee1671974ab810d00,d7d2a6ff52b58e0429a30402375e4724
10094682,4,2100076007978894515,正常天气,121.54349,39.127309,121.541874,39.114171,1582975254,1582975257,1582975279,1582977774,1582976337,b39ed50d471c0683e4661a31cc87908c,dcfa26570f57e5278df321d8e431a041
10097074,0,2100075939343959593,正常天气,121.304879,39.128612,121.281364,39.136651,1582919057,1582925563,1582935484,1582938000,1582927063,454edfc219989bb4d82a45e8700eff18,a43fd453054a094cf7d76082c3a90d77
10097074,0,2100075940643440636,轻微恶劣天气,121.305664,39.128561,121.296994,39.127441,1582936499,1582936506,1582936564,1582938299,1582937046,24e19583be4fc0a3998cb4ccd99c7c36,80aceb72a67be6e35079f1270f2503e4
10097074,1,2100075973428184298,极恶劣天气,121.308734,39.128911,121.309314,39.131671,1582954632,1582954637,1582954684,1582956432,1582955177,c4015b7f368e6b4871809f49debe0579,47c694448a84008a628d78e3273ff9a7
10097074,1,2100075970923300623,极恶劣天气,121.303372,39.128609,121.307604,39.144291,1582954647,1582954648,1582954685,1582957287,1582955548,692796bbccafa895fc4f14db1575899c,cf14079a6f23c7a971237ce4b133e72d
10097074,1,2100075971949594620,极恶劣天气,121.305664,39.128561,121.308654,39.129121,1582954808,1582954813,1582954864,1582956608,1582955353,d7aab42e6b85c49c0f1d3a115e939c74,80aceb72a67be6e35079f1270f2503e4
10097074,2,2100075978108733401,正常天气,121.314174,39.125851,121.299254,39.126521,1582958219,1582958221,1582958224,1582960379,1582959121,0cfa719bec82499e6e5dc1ca6778e198,49baf920d321f53bdb12c0f3102887c7
10097074,2,2100075976866924505,正常天气,121.314174,39.125851,121.299114,39.125771,1582958237,1582958239,1582958284,1582960397,1582959139,0cfa719bec82499e6e5dc1ca6778e198,49baf920d321f53bdb12c0f3102887c7
10097074,2,2100075978705339498,正常天气,121.312014,39.132891,121.291414,39.128221,1582958371,1582958375,1582958462,1582960891,1582959095,50603c5dbe0f526198713c0eddc6354e,019a0ac855f7e0e6a23bacf229811a9d
10097074,3,2100075984592504427,正常天气,121.311534,39.133902,121.311604,39.149791,1582963195,1582963196,1582963205,1582965055,1582963856,b42e0b9d7421394ea957d9f9468420cf,0fdf52eaae4827120e3decfb408c4e51
10097074,3,2100075986181948522,正常天气,121.312014,39.132891,121.314954,39.152691,1582963583,1582963586,1582963625,1582965563,1582964306,15886766b7f7da1a48ed212ba3df992f,019a0ac855f7e0e6a23bacf229811a9d
10097074,4,2100075983951071117,正常天气,121.300784,39.139791,121.315264,39.126641,1582962627,1582962629,1582964884,1582967700,1582964129,ec630e89a5811339de08201f4d778017,4b3fdf40467ffeb959c9453645b0bc45
10097074,4,2100075984422012813,正常天气,121.300784,39.139791,121.305084,39.129531,1582964267,1582964268,1582964885,1582967700,1582965768,97bc7999daa110a02fb9bd8319389a4e,4b3fdf40467ffeb959c9453645b0bc45
10097074,5,2100076008452228288,正常天气,121.311854,39.135861,121.290904,39.129971,1582974546,1582974550,1582974605,1582976826,1582975630,5c38be6f19b3558a66341688b7c59f17,d38473a7b7ab6d584259cd585ceb1a94
10097074,5,2100076005470340299,正常天气,121.290046,39.12839,121.297984,39.121961,1582974780,1582974782,1582974904,1582977060,1582975862,b6297327d50fdc1d2f16a3ed500b7398,1cdbded8b9b1b6e8592d2cf79f7968bd
10097074,5,2100076008544961592,正常天气,121.29015,39.128436,121.301094,39.124701,1582974930,1582974931,1582974964,1582977090,1582976011,0a8d332685fe780e7ee3c2b5bd87027e,b231041f6fce35e8cac6536718f4b513
10097074,5,2100076009196881809,正常天气,121.299389,39.128625,121.286704,39.135261,1582976002,1582976003,1582976044,1582978162,1582976903,f0d74172b35798b061cd61d1eacdb897,4bbfb8b3d1092645711cfcb88b7778e6
10098837,1,2100075985792370558,正常天气,121.421933,39.199729,121.447874,39.211661,1582963699,1582964180,1582964340,1582967239,1582965440,b962dbf04c24512932a3134f0f7a33af,77a477deae84a86f55eb57fb409ceecf
10098837,1,2100075984812148290,正常天气,121.427162,39.196771,121.448044,39.212001,1582964459,1582964460,1582964489,1582967879,1582965420,b962dbf04c24512932a3134f0f7a33af,fb270d5c345fc04dcf59c48c2d94aeb1
