courier_id,wave_index,tracking_id,weather_grade,pick_lng,pick_lat,deliver_lng,deliver_lat,create_time,confirm_time,assigned_time,promise_deliver_time,estimate_pick_time,aoi_id,shop_id
100002652,0,2100075169934902336,正常天气,121.566356,39.149935,121.581944,39.151091,1581822294,1581822295,1581822309,1581824694,1581823255,b0daab51ebd6a173932ca16b53a87bea,adfe4aafa9da1cc27b7762cc082be000
100002652,0,2100075171212592726,正常天气,121.568095,39.149675,121.580924,39.148961,1581822681,1581822684,1581822729,1581825741,1581823404,c37e87b5938c4e0a48104a9344302582,24e38e749f48329a1d80cee8a5aa29d3
100002652,1,2100075174002230396,正常天气,121.568036,39.149988,121.567544,39.149851,1581825999,1581826001,1581826029,1581827799,1581826721,1a9f9591a28c27396c926ae04999d4fb,ce63ef8d8a0bc4301510e69cb0afc27b
100002652,1,2100075173069620822,正常天气,121.568095,39.149675,121.568984,39.145741,1581826609,1581826612,1581826629,1581828469,1581827332,213e69a8ee6116cbf19a24b4b9d28924,24e38e749f48329a1d80cee8a5aa29d3
100002652,1,2100075175428129799,正常天气,121.568558,39.144311,121.558394,39.151011,1581827419,1581827422,1581827469,1581829219,1581827962,9f84ddeb2ea4a0ddb9f1be1c6f244b03,2070c74b85e6e8edfdf846b13c938912
100002652,1,2100075177826288704,正常天气,121.566356,39.149935,121.573304,39.144261,1581827905,1581827906,1581827949,1581829765,1581828986,60becef63aa503cb58c3231bf33e70f5,adfe4aafa9da1cc27b7762cc082be000
100002652,1,2100075177848767828,正常天气,121.566666,39.149975,121.569444,39.146071,1581828000,1581828012,1581828069,1581829800,1581828492,5453cbf0d85d60d1a9d27c730b73ac1c,2aff00083cdb29211302228e3d93d205
100002652,2,2100075188147946763,正常天气,121.572474,39.150791,121.562474,39.156481,1581840320,1581840321,1581840369,1581842660,1581841041,3d36e02ada0a64c08b566a39afb6a963,5a2bca8c4281c9b954796d126ca22602
100002652,2,2100075188215088192,正常天气,121.566356,39.149935,121.557854,39.145111,1581841163,1581841164,1581841269,1581843203,1581842064,9c716d3eec71456ca9070caf90445110,adfe4aafa9da1cc27b7762cc082be000
100002652,3,2100075193648711193,正常天气,121.551981,39.142575,121.549974,39.139301,1581844352,1581844358,1581844389,1581846152,1581844958,1590797dd12acb77cb741abe26659c24,0eef26689ddde012dc8b38e019734ed8
100002652,3,2100075192736286233,正常天气,121.551981,39.142575,121.555094,39.143481,1581844473,1581844479,1581844509,1581846273,1581845199,d4b7e1f4397a00c53220afa0cf6b2560,0eef26689ddde012dc8b38e019734ed8
100002652,3,2100075193092507491,正常天气,121.553204,39.142561,121.556024,39.145451,1581845213,1581845214,1581845229,1581847013,1581845754,caf7e655bc58437f9fb085ec9347ee6b,449b391ac1c06a773c70b8ce2b3d1e05
100006950,3,2100075179470030575,正常天气,121.440637,39.004195,121.405214,39.000311,1581829918,1581829919,1581829966,1581834600,1581831419,79f172a1774277b67bd69a94ca0d7111,7eedd2f01e32c959369831c3df9e02a2
100006950,3,2100075177355904751,正常天气,121.440637,39.004195,121.426394,39.008821,1581830041,1581830042,1581830395,1581833700,1581831542,d4d93bbc9e91365a11392f5f2ba1b547,7eedd2f01e32c959369831c3df9e02a2
100006950,4,2100075187763775453,正常天气,121.412502,39.042265,121.445864,39.037771,1581839300,1581839301,1581839318,1581842240,1581840381,717afa9d93a87f20ccee19fe193122b5,13664c2ec7fc6d439d847bf221adcaae
100006950,4,2100075189029340209,正常天气,121.412074,39.042021,121.426464,39.040841,1581840150,1581840150,1581840158,1581842610,1581840990,e11394a5468688f118ab4fb772a9890f,c1ac4a6efb7966c0619b0874798afd54
100006950,4,2100075191227385107,正常天气,121.437147,39.045412,121.414504,39.049511,1581841049,1581841052,1581841238,1581844109,1581842132,294f383a58080309e0b8a196d837d456,0bbcad93810f203c750220e055cf28a3
100023698,1,2100075175895893154,正常天气,121.37753,39.135277,121.379754,39.135721,1581826844,1581826846,1581827026,1581828644,1581827566,57bd08cc8f2a9acdc2bf906f6d62ca9a,4b79efe40a74cdefa2cbd77bfca53fa6
100023698,1,2100075176126547106,正常天气,121.37753,39.135277,121.386534,39.134041,1581827087,1581827089,1581827145,1581828887,1581827809,4163e31b906c2ecd98b8488e4c41068f,4b79efe40a74cdefa2cbd77bfca53fa6
100023698,1,2100075177876391598,正常天气,121.386141,39.135713,121.377504,39.127771,1581828145,1581828147,1581828165,1581830125,1581828747,a62ef555b3beded540f75fbefb1b7ab7,cdad9e75a3baa7d879ae8bb98f4ff471
100023698,2,2100075179421369369,正常天气,121.374011,39.135793,121.360854,39.145621,1581829536,1581829537,1581829544,1581831516,1581830257,013cf9cfa8b5722173fac572c3acaf96,af62ecc30266ad244ea54e3af929539b
100023698,2,2100075177657730842,正常天气,121.377218,39.136655,121.360554,39.146371,1581829632,1581829637,1581829664,1581831732,1581830717,013cf9cfa8b5722173fac572c3acaf96,42258c7a80f5689ae16e4eafdc4c87cb
100023698,3,2100075180214224293,正常天气,121.373504,39.135871,121.356294,39.144801,1581831593,1581831599,1581831645,1581833873,1581832319,448ae9b5eae7f3eb5a9cb9d197a82c73,f6f667fc164958c4f22e25e2ed011339
100023698,3,2100075180246730165,正常天气,121.376732,39.135899,121.357754,39.136711,1581831891,1581831892,1581831944,1581834351,1581832612,426e4075d62c3d2af9c3a436639f1532,478c81b3545dbcb16aa5bfaba7a04ae1
100023698,3,2100075180033934361,正常天气,121.374011,39.135793,121.366384,39.130831,1581832327,1581832328,1581833124,1581834187,1581833228,34ce2d8fb4291325936e9f6d0ffbb415,af62ecc30266ad244ea54e3af929539b
100038207,0,2100075171952166377,正常天气,121.427787,39.197609,121.436694,39.190371,1581823591,1581823594,1581824603,1581827251,1581824434,5b607c31459cf4ef75ddaab7b06ed4b1,5fcbea2c5f4b90fbf93577bdbc5f31bc
100038207,0,2100075170146452820,正常天气,121.427954,39.197001,121.418534,39.199221,1581823650,1581823657,1581823672,1581826356,1581824557,3a30be93eb45566a90f4e95ee72a089a,fb72c68710d95fcb53cbf9655e4e7aa6
100038207,0,2100075174648153428,正常天气,121.427951,39.196997,121.448064,39.210101,1581826051,1581826052,1581826193,1581829771,1581827312,56cf559563abe53624ad727ad75d3aa8,fb72c68710d95fcb53cbf9655e4e7aa6
100038207,1,2100075177981871444,正常天气,121.427951,39.196997,121.422004,39.198111,1581828877,1581828878,1581828893,1581831277,1581830138,0b6c99a17dfde92bb6893816cedf66e7,fb72c68710d95fcb53cbf9655e4e7aa6
100038207,1,2100075179444241748,正常天气,121.427951,39.196997,121.436674,39.230121,1581829698,1581829698,1581830093,1581833058,1581830718,25a90c71697041a9ce1ecc47e7425e78,fb72c68710d95fcb53cbf9655e4e7aa6
100038207,2,2100075194390971881,正常天气,121.427787,39.197609,121.412234,39.189631,1581845921,1581845923,1581845933,1581850181,1581847543,9b51a75a0f750ba340a0d76a55898712,5fcbea2c5f4b90fbf93577bdbc5f31bc
100038207,2,2100075196522890729,正常天气,121.427787,39.197609,121.404444,39.188111,1581846398,1581846401,1581846413,1581850718,1581848021,193eeaefedc89bda1246c4f578222c2d,5fcbea2c5f4b90fbf93577bdbc5f31bc
100038207,2,2100075195653293545,正常天气,121.427787,39.197609,121.410034,39.182191,1581846487,1581846489,1581846533,1581851287,1581848109,18615b3ead691b0bb8fbf40792f634f2,5fcbea2c5f4b90fbf93577bdbc5f31bc
100038207,2,2100075197800580676,正常天气,121.427283,39.197212,121.421114,39.183491,1581846794,1581846794,1581846834,1581850634,1581848234,d89516cb976c61bfa80ee0113779e946,3b5f657f49a25ad6dae77d4e048d1003
100069773,0,2100075160849548961,正常天气,121.556844,39.178741,121.570024,39.167311,1581783036,1581784819,1581818695,1581821100,1581786319,9dac792868aac583a7f5c4e3ef5d47d0,4f0c5ad2934f0b4c88a8cec1d22d0e2c
100069773,0,2100075163806500025,正常天气,121.558245,39.173984,121.577164,39.168761,1581816858,1581816861,1581817855,1581820200,1581818361,da5a35b7475d9684de6d58f1f3167973,f776e79bfef1e964eb2022fb0b11aba0
100069773,0,2100075164549645767,正常天气,121.55168,39.176902,121.574804,39.175021,1581818170,1581818171,1581818215,1581821230,1581819131,5b19f447bcdbd167778fc7e3d4a8f1a8,2a0c1bb2e4aeca4ea0db11d3c525b45d
100069773,1,2100075171291301096,正常天气,121.551091,39.177778,121.540954,39.183351,1581823398,1581823399,1581823979,1581826158,1581824239,030df03d222d3040d00dd576d15d9847,a885b8137c7082748516630ae355a1c6
100069773,1,2100075170431599848,正常天气,121.551091,39.177778,121.542594,39.181341,1581823828,1581823828,1581823855,1581826588,1581824908,959a557f5f6beb411fd954f3f34b21c3,a885b8137c7082748516630ae355a1c6
100069773,1,2100075170534622991,正常天气,121.546281,39.17646,121.541644,39.180131,1581824508,1581824509,1581824515,1581826488,1581825409,6478a896ba2d90717d6e8e6568fc239b,fe1c638c4d888928af19818cedbe1d57
100069773,2,2100075173372659542,正常天气,121.549649,39.186654,121.547314,39.186251,1581826016,1581826017,1581828235,1581830100,1581827517,bd7db7397f7d83052f829816ecc7f004,cab8643714c6044dc700e863c9b24d3b
100069773,2,2100075175127024710,正常天气,121.546017,39.176396,121.547774,39.186541,1581827140,1581827141,1581827155,1581829240,1581827801,744a287b9874be761268e9d025ff1350,11d7f95ad50144a6d8d94587841384f3
100069773,2,2100075176623769207,正常天气,121.548679,39.186951,121.531854,39.185291,1581828484,1581828489,1581828536,1581831004,1581829569,d68a18275455ae3eaa2c291eebb46e6d,8ef328bdfe47722a5d6c0d6033848ad7
100069773,3,2100075195937490331,正常天气,121.55951,39.174319,121.560384,39.177361,1581846879,1581846880,1581846895,1581848859,1581847960,992379a854694e5deaff46759060e049,44203d37d291c293963b0caed770d927
100069773,3,2100075197485253817,正常天气,121.558245,39.173984,121.568054,39.182441,1581846982,1581846985,1581847015,1581849922,1581848245,49ef489c831854e3b037683bc9f59337,f776e79bfef1e964eb2022fb0b11aba0
100069773,3,2100075197531653567,正常天气,121.558366,39.173663,121.565124,39.179031,1581847427,1581847429,1581847435,1581851507,1581848689,cefb500a9f3d05511296a719cffb21cf,a7bb441e5e16e96464259d8549926b29
100069773,4,2100075200806389409,正常天气,121.556844,39.178741,121.557614,39.155111,1581848203,1581849995,1581850015,1581859003,1581853595,434ee5dcf88a38cebf0cd1bdd09eca83,4f0c5ad2934f0b4c88a8cec1d22d0e2c
100069773,4,2100075199601936033,正常天气,121.556844,39.178741,121.552344,39.169711,1581848317,1581850095,1581850134,1581859117,1581850297,d483a8e5e60e3890ab15451e0d7ea8f9,4f0c5ad2934f0b4c88a8cec1d22d0e2c
100069773,4,2100075198896080292,正常天气,121.560229,39.177853,121.558224,39.156581,1581849414,1581849415,1581849475,1581852234,1581850315,a01b8b6a9412a92b9bba36bb4713c330,0f7f9f2fb2a5accd921eecf5325cbbab
100069773,4,2100075200763069930,正常天气,121.552289,39.172781,121.552114,39.171231,1581849549,1581849550,1581849655,1581851349,1581850630,b848edae25876384476f8970b8491160,9cb6852ecd5faa7bdccb3ec307ef7c40
100069773,4,2100075201174111905,正常天气,121.556844,39.178741,121.550794,39.166821,1581849832,1581851618,1581851634,1581860632,1581851632,f03f6ff8d4c69df40df23bbc2229fad9,4f0c5ad2934f0b4c88a8cec1d22d0e2c
100069773,4,2100075203344500385,正常天气,121.556844,39.178741,121.556394,39.171251,1581850598,1581852382,1581852414,1581861398,1581852398,7dd28cf9103c910d5b398f67a5404197,4f0c5ad2934f0b4c88a8cec1d22d0e2c
100069773,4,2100075202122450593,正常天气,121.556844,39.178741,121.558244,39.171071,1581850926,1581852714,1581852774,1581861726,1581852726,9a6c2f1fb1887fc1c86518b0014bf163,4f0c5ad2934f0b4c88a8cec1d22d0e2c
100069773,4,2100075201767376159,正常天气,121.55371,39.180142,121.556614,39.176441,1581851537,1581851540,1581851574,1581853757,1581852800,83df173c3650ed826daf6e63f6e48f94,b2eed810e7ab91b9fd6daa78f3f0a5fd
100069773,4,2100075202820015330,正常天气,121.56027,39.176524,121.561364,39.183711,1581854941,1581854941,1581854994,1581856861,1581855332,bb095b721c5ababe9c277414f71da87b,d3f8209fef2b22bbd41bfac37aa4b0c2
100069773,4,2100075204956882207,正常天气,121.55371,39.180142,121.560584,39.174751,1581855890,1581855892,1581855954,1581858710,1581856552,fdf23731ed5737610a4953d4894e5c0c,b2eed810e7ab91b9fd6daa78f3f0a5fd
100069773,4,2100075203550840095,正常天气,121.55371,39.180142,121.560184,39.173861,1581856057,1581856063,1581856074,1581858877,1581856963,26ac89ae90b81cbd5ba1953da888d8a3,b2eed810e7ab91b9fd6daa78f3f0a5fd
100069773,4,2100075204397761820,正常天气,121.552294,39.179701,121.564364,39.156521,1581856321,1581856332,1581856373,1581860649,1581858072,a5c4499751c411d3b5662b3aa1f7571c,186bc5b2e582d750fcf981590b43af74
100069773,4,2100075204679665060,正常天气,121.560234,39.177851,121.562104,39.152591,1581857706,1581857739,1581858031,1581860558,1581858639,f2d3bfad8628644447b84404d311adbf,0f7f9f2fb2a5accd921eecf5325cbbab
100076651,0,2100075165392111365,正常天气,121.411481,39.179489,121.424294,39.180831,1581815945,1581817738,1581817774,1581826745,1581823738,adc3db1528652b491c20887485ff2c1f,5da049a9552fff778b091463df12fff5
100076651,0,2100075163189937670,正常天气,121.414323,39.186626,121.411884,39.173351,1581816546,1581816547,1581816633,1581820686,1581818947,65250176483f69c5f9e7c3ef5f2fe551,e2a70f54b42009a7ed9f1d18861c0e43
100076651,0,2100075164227077893,正常天气,121.411481,39.179489,121.416374,39.169341,1581816637,1581818415,1581818434,1581827437,1581824415,664942bdea611f0f8c4c6e4192eb7ecd,5da049a9552fff778b091463df12fff5
100076651,0,2100075166631298821,正常天气,121.411481,39.179489,121.410504,39.178971,1581816961,1581818748,1581818794,1581827761,1581824748,58174f75561d7c7b9ee268cd9c503ef6,5da049a9552fff778b091463df12fff5
100076651,0,2100075163236009334,正常天气,121.410468,39.181521,121.411884,39.173351,1581817314,1581817314,1581817353,1581819834,1581818034,65250176483f69c5f9e7c3ef5f2fe551,bf1548936e03f3a1ac9d52a9cd3d0b15
100076651,0,2100075163944224517,正常天气,121.411481,39.179489,121.424294,39.180831,1581817318,1581819112,1581819154,1581828118,1581818938,adc3db1528652b491c20887485ff2c1f,5da049a9552fff778b091463df12fff5
100076651,0,2100075165183476741,正常天气,121.410388,39.181376,121.410564,39.178931,1581818673,1581818673,1581818734,1581820833,1581819813,58174f75561d7c7b9ee268cd9c503ef6,bb93cb6806a26eee672439cc87853776
100076651,2,2100075171010118772,正常天气,121.408419,39.190927,121.422474,39.196031,1581823143,1581823145,1581823174,1581827763,1581824465,839ab46820b524afda05122893c2fe8e,1bc08a440a948c3cd9820fcbbe752804
100076651,2,2100075172617094704,正常天气,121.408435,39.190767,121.415594,39.197371,1581824338,1581824940,1581824975,1581827278,1581826260,00f712a9fc3d45467c4b1f8adbfbd3e3,d3b31da76ce54a6903ccc2b3de7ea0d0
100076651,4,2100075198683973150,正常天气,121.408154,39.191071,121.420354,39.171051,1581849675,1581849676,1581849694,1581852855,1581850936,cbb953b04235e588f6997583d4d9c38a,82c7274b60d083f5b8a1a9f1d35656c0
100076651,4,2100075199656724217,正常天气,121.408034,39.190991,121.415754,39.193061,1581850664,1581850675,1581850714,1581852944,1581851755,39e3f231e82983f629c42d1797ca9ec3,5f1ec869ed1df48aba811cb214f8fe9d
100076651,5,2100075200825296186,正常天气,121.408435,39.190768,121.412384,39.185781,1581850379,1581850380,1581850414,1581854219,1581851820,159c6eb64efcba9ca2b74e95b3a24240,caf5ff2440fbf79aacec919f81edadd7
100076651,5,2100075200996738966,正常天气,121.414902,39.187186,121.419284,39.182061,1581852421,1581852422,1581852513,1581854641,1581853322,6a4d5952d4c018a1c1af9fa590a10dda,eab57f1765d01e903aa78c05de0cf1b1
100076651,5,2100075203756229770,正常天气,121.416889,39.18365,121.421194,39.190911,1581853201,1581853202,1581853354,1581855361,1581853862,fae314048bbed2374425fda048eda311,622162fa514365fa3867ddce401378a7
100076651,5,2100075203105752981,正常天气,121.421354,39.184668,121.411754,39.187981,1581854225,1581854227,1581854253,1581856325,1581855127,57da295da03b3639d26bd331303b1d69,c810399e7f49d260ebd208f8811461a4
100076651,5,2100075202250933386,正常天气,121.416889,39.18365,121.414654,39.195581,1581854353,1581854353,1581854373,1581856333,1581855253,00f712a9fc3d45467c4b1f8adbfbd3e3,622162fa514365fa3867ddce401378a7
100076651,5,2100075204336092298,正常天气,121.416889,39.18365,121.417064,39.191291,1581855161,1581855162,1581855257,1581857201,1581856062,67c17e9715e1d056cc1fa440f1335e34,622162fa514365fa3867ddce401378a7
10007871,0,2100075166422796036,正常天气,121.630842,39.142712,121.637904,39.131511,1581820336,1581820337,1581821054,1581823800,1581821837,3dc61b347a77c2621bddfacc8787f81d,967cd456706b2bcc9921f3dbe1c1febd
10007871,0,2100075168623199248,正常天气,121.635761,39.141855,121.638494,39.137541,1581820686,1581820694,1581820995,1581823566,1581822398,cd72eaab58ab0c5eeae37511328d7ffc,a6edcc2f7e80dbcb0e755f626ffe986a
10007871,0,2100075168945603773,正常天气,121.631093,39.142677,121.636034,39.129901,1581821206,1581821206,1581821235,1581824626,1581822106,3c8c1c1ce394f0ce68e46e51842f7ea2,1bba8fcc3a6408d1e20bb15061172054
10007871,0,2100075168180963001,正常天气,121.631557,39.142162,121.638124,39.127631,1581822080,1581822081,1581822135,1581825681,1581823881,3c8c1c1ce394f0ce68e46e51842f7ea2,9b153efe84ce5c0aeee55a45f1701829
10007871,1,2100075171658139362,正常天气,121.634274,39.142031,121.627304,39.147441,1581823668,1581823669,1581823695,1581826128,1581824749,f3ce7eb378ad3c10089e73af381e9d2f,90923c3d0e89ce972717115070bf1061
10007871,1,2100075171978479330,正常天气,121.634274,39.142031,121.627304,39.147441,1581823803,1581823804,1581823816,1581826263,1581824884,f3ce7eb378ad3c10089e73af381e9d2f,90923c3d0e89ce972717115070bf1061
10007871,1,2100075171321120616,正常天气,121.631304,39.141771,121.624094,39.145721,1581823835,1581823846,1581823875,1581826655,1581824686,466d64b7a099bd6fd7bf7eebe8ad230c,39f3d42689e586678c5b31e9893a6b7b
10007871,1,2100075171318892529,正常天气,121.631641,39.141797,121.627274,39.146051,1581823836,1581823837,1581823876,1581826476,1581824737,c5d9c3c46d24ac757774c22832677185,ee5bfba8796b6beeed3329da7fb917a7
10007871,1,2100075174253888698,正常天气,121.62993,39.144603,121.630304,39.139461,1581825346,1581825347,1581825375,1581827506,1581826187,07fdcaf0b7cd30891ba75648701e9d5c,34887bf8e1a0de848d271bc6b7059670
10007871,1,2100075174291244990,正常天气,121.63119,39.142011,121.631774,39.133931,1581825553,1581825556,1581825616,1581828013,1581826636,0d45c78c73aab7671ac8737a6ddc8209,295d8c94dccb454b10fd6a0275266dc7
10007871,1,2100075174333581032,正常天气,121.63071,39.143796,121.627274,39.127771,1581825820,1581825820,1581825856,1581828520,1581826900,923514222724fca7572efe52f234089b,8d792b135df8612423dc24ab2a3d3a82
10007871,1,2100075173372888889,正常天气,121.631304,39.141771,121.632844,39.134061,1581826017,1581826017,1581826035,1581828417,1581827097,9f3db32e96afb29338850172afa12a55,f13ff74ec7053aa3328bf1e39c652ffb
10007871,2,2100075176617378896,正常天气,121.631958,39.142121,121.627874,39.152421,1581828449,1581828453,1581828555,1581831269,1581829533,bf49288eb197bc6b44fa0573acf8c74d,00f68252fc698f5b632c6741a9788cc7
10007871,2,2100075177578694641,正常天气,121.631641,39.141797,121.633864,39.161171,1581828866,1581828866,1581828915,1581831986,1581829766,4ba319989fcd0bb0fa6599a6d8966c2e,ee5bfba8796b6beeed3329da7fb917a7
10007871,3,2100075177393325874,正常天气,121.630842,39.142712,121.634634,39.160911,1581830456,1581830458,1581830475,1581833576,1581831718,4ba319989fcd0bb0fa6599a6d8966c2e,dcf3e7d6fc47856a21b0d46a0df84584
10007871,3,2100075179566761391,正常天气,121.630842,39.142712,121.632144,39.162631,1581830759,1581830760,1581830775,1581833399,1581831840,2db18acb13cd6081d74c5c02e6448e68,c5b45183ddd2463849a6a79529b41a46
10007871,3,2100075181055444133,正常天气,121.631114,39.141721,121.632144,39.162631,1581830958,1581831081,1581831135,1581833898,1581832038,2db18acb13cd6081d74c5c02e6448e68,73a38fd129116d3d40f66cf43bd600c1
10007871,3,2100075180796118841,正常天气,121.631304,39.141771,121.628124,39.163511,1581830970,1581830970,1581831014,1581833850,1581832230,4b63bb7d8b5d8c847adbced3a03eb117,f13ff74ec7053aa3328bf1e39c652ffb
10007871,3,2100075179352392869,正常天气,121.631114,39.141721,121.627064,39.167241,1581831169,1581831182,1581831314,1581834300,1581832022,d6aa83dd2eb57b948c7ae8315ee8b381,73a38fd129116d3d40f66cf43bd600c1
10007871,4,2100075188486538405,正常天气,121.631114,39.141721,121.632134,39.142341,1581839433,1581839563,1581839594,1581841533,1581840513,898aef0932f6aaecda27aba8e9903991,73a38fd129116d3d40f66cf43bd600c1
10007871,4,2100075187476956985,正常天气,121.631304,39.141771,121.634024,39.129091,1581839480,1581839480,1581839534,1581842000,1581840560,5710eb116f27527390bec7aa5cedb44d,f13ff74ec7053aa3328bf1e39c652ffb
10007871,4,2100075188126123973,正常天气,121.629187,39.143572,121.635904,39.128001,1581840110,1581840110,1581840135,1581842690,1581840830,0aad3fb65a5335988324b2080d7a3342,28969f2354e2bc0004e22217278efd5d
10007871,5,2100075181444236580,正常天气,121.629954,39.141577,121.613344,39.129671,1581831519,1581831520,1581844214,1581847200,1581833020,237b077fe87aa6984cb5236fa7dc4123,45c415d7de6b93cebd0ec2af53c32542
10007871,5,2100075193599591931,正常天气,121.628458,39.146652,121.610484,39.145861,1581844014,1581844015,1581844318,1581846414,1581844615,08d4126afc75444b9fa4420b7becf8cc,6634738f292f7e485701bd54bfec5b6b
100084429,0,2100075179431200322,正常天气,121.283514,38.939945,121.305054,38.938981,1581829288,1581829595,1581829615,1581831868,1581830728,38d563da2eb6af5ea3e169f1c64e7021,02c0fb50971c2b810569da3016c8f732
100084429,0,2100075179493884950,正常天气,121.283001,38.940523,121.306214,38.933311,1581830111,1581830115,1581830154,1581832331,1581830655,8604e0df97cdf73b028fa6041b31692b,6115d55cab85db555f2c2f0508668809
100084429,1,2100075180109891120,正常天气,121.29398,38.939824,121.305504,38.932271,1581829708,1581830302,1581834054,1581836400,1581831802,b423b0c60ad0ceaf8082a8b5976832c3,a13f768c61812d3193baa23c06b647bc
100084429,1,2100075181576750102,正常天气,121.283001,38.940523,121.305054,38.938981,1581833324,1581833327,1581833455,1581835484,1581833867,38d563da2eb6af5ea3e169f1c64e7021,6115d55cab85db555f2c2f0508668809
100084429,3,2100075197805036806,正常天气,121.254997,38.952918,121.250424,38.948441,1581846823,1581846823,1581846835,1581848923,1581847723,c461994cd025d51dc5bd014705f1dd95,1f9d553b432d62d900a9f4539312cff1
100084429,3,2100075198453777843,正常天气,121.249438,38.950048,121.254444,38.949251,1581847373,1581847374,1581847435,1581849473,1581848274,37eccb65ffbeb54dc245f8d05e59d00d,59cbbffa659d761b90ac2fc113ed3de1
100084429,4,2100075201966769167,正常天气,121.293975,38.940155,121.260534,38.952091,1581854812,1581854813,1581854873,1581857632,1581855593,7fa2df6ab5559c9289bd2484c7c41f60,ad679874bd7809870bae8ddec1d62316
100084429,4,2100075204374856950,正常天气,121.253975,38.952852,121.281454,38.940061,1581855842,1581855842,1581855894,1581858602,1581856742,8e2704cb6d07302696bd710b7f526f99,7115f374693995aee632141726842302
100084429,4,2100075203547203009,正常天气,121.251722,38.953163,121.274414,38.948251,1581855989,1581855996,1581856014,1581858329,1581856420,def264f221707625d48f855456d93a91,cc7d1f68632620090346ea14efdb4265
10012191,0,2100075166640276766,正常天气,121.52986,39.204529,121.554464,39.196061,1581818825,1581818825,1581818929,1581821645,1581819545,87582b897db386f50283b49f43f49511,1a981e52c29bec2de3a49244dbec440b
10012191,0,2100075165499524596,正常天气,121.529656,39.204542,121.552354,39.192491,1581819180,1581819186,1581819229,1581821880,1581820266,f4d0e2e7fc057a58f7ca4a391f01940a,c92b63db0e976ed9eeeef3e7608e59db
10012191,2,2100075167785452909,正常天气,121.530186,39.199073,121.513444,39.190781,1581821141,1581821726,1581825890,1581828300,1581823226,c6b10470aa6d38f1bbfbc57c34f116e5,e9733f1296cab36e0321c0e565e314db
10012191,2,2100075171847701922,正常天气,121.524069,39.201243,121.523764,39.196201,1581824808,1581824810,1581824869,1581827568,1581826250,d17d3f023322cec6876ba33c1cd05a05,d107f9da1c66ed0ee9bcc2ce6d1c0694
10012191,2,2100075174197233434,正常天气,121.533846,39.206128,121.518594,39.195901,1581824886,1581824887,1581825021,1581827466,1581825787,5c4d0757c4624f4494707a93d224f919,1a56c57094428a8c8867d42e8ef39d2b
10012191,2,2100075172643997068,正常天气,121.530007,39.201576,121.525694,39.200671,1581825019,1581825019,1581825050,1581826819,1581825619,813c1a689e7386430bb19d0ef978912c,47a46713eddcc79834b61fea3ac31e05
10012191,2,2100075173779965590,正常天气,121.53028,39.19881,121.505394,39.190631,1581826848,1581826850,1581826909,1581829308,1581827450,bad96ab66db66707a229ddb0109e7c6a,d4dadc60fe30d6cf5457e817c596d605
10012191,3,2100075177560933794,正常天气,121.524069,39.201243,121.541934,39.191961,1581828724,1581828727,1581828769,1581831664,1581829987,f4aa0dd960521e045ae2f20621fb4ee9,d107f9da1c66ed0ee9bcc2ce6d1c0694
10012191,3,2100075177260385451,正常天气,121.537045,39.196909,121.525924,39.188421,1581829368,1581829384,1581829557,1581832128,1581830884,3bf3a2ebc53434d1cf61751d3e663641,a532977a845cf6c2fb2f70c42df92187
10012191,3,2100075180051662621,正常天气,121.538324,39.187923,121.527324,39.187421,1581829954,1581829956,1581829969,1581831814,1581830676,7fdc7df621a1e9b1f1e2ce1a38fdf424,ac01144bc769a2948599f665df7b9cbe
10012191,4,2100075181773751886,正常天气,121.538302,39.188448,121.532334,39.198981,1581831849,1581831854,1581831889,1581834669,1581833114,30fd1537990d9a3bf96396c551ff3da2,fd5cd7448dd75dcde9b0a1e355febc6c
10012191,4,2100075182462764055,正常天气,121.53195,39.203795,121.542634,39.211701,1581832949,1581832953,1581832969,1581835829,1581833853,dfe8ae6026fc01bd5425dc801df6d57c,26cb9ea9ffd44fb4b6aa3e6242f6a1b7
10012191,4,2100075181242845158,正常天气,121.52982,39.204001,121.524514,39.213181,1581833022,1581833023,1581833149,1581835122,1581833623,55eb193955648421ee43ead61da19c57,0fba07c4553eeb67d0ca4e9d5918eebf
10012191,5,2100075184795813658,正常天气,121.533846,39.206128,121.536674,39.207741,1581835587,1581835589,1581835609,1581837447,1581836489,e9a2f544faeaa866f266bbeb34c9366d,1a56c57094428a8c8867d42e8ef39d2b
10012191,5,2100075186009081796,正常天气,121.533992,39.205992,121.538824,39.213641,1581835924,1581835927,1581835969,1581838564,1581836827,57d862fddad404d8157ed8bb21ae59e6,c09554f1829310bcc0215b9541389ef2
10012191,7,2100075190212003102,正常天气,121.52986,39.204529,121.523524,39.202851,1581840594,1581840594,1581841009,1581842934,1581841314,a5cc42f475de18a6dd3be59f76cf03f4,1a981e52c29bec2de3a49244dbec440b
10012191,7,2100075189640562060,正常天气,121.530007,39.201576,121.525694,39.200671,1581841221,1581841222,1581841249,1581843021,1581841822,813c1a689e7386430bb19d0ef978912c,47a46713eddcc79834b61fea3ac31e05
10012191,7,2100075189647115373,正常天气,121.526718,39.195465,121.526984,39.190391,1581841265,1581841267,1581841429,1581844025,1581842287,96effc8be9f31de1715d3824bd6f4892,0952e6ab45647d2da346591e26d14a03
10012191,7,2100075190964979292,正常天气,121.525007,39.18729,121.522234,39.197741,1581842231,1581842231,1581842269,1581844751,1581843131,2bd3462b15c14026cdb33065777b633b,5c97713ebc2b961abc827da496ee6d0e
10012191,7,2100075192601642270,正常天气,121.52986,39.204529,121.534534,39.196781,1581843262,1581843264,1581843409,1581845602,1581843984,f56051c56d53ff580ff393c50022c8f4,1a981e52c29bec2de3a49244dbec440b
10012191,8,2100075186029135645,正常天气,121.538324,39.187923,121.540324,39.191711,1581836051,1581836053,1581846050,1581848100,1581837553,f4aa0dd960521e045ae2f20621fb4ee9,ac01144bc769a2948599f665df7b9cbe
10012191,8,2100075193797543699,正常天气,121.537088,39.196899,121.538124,39.190251,1581845688,1581845689,1581845749,1581847968,1581846589,36c58d2b778f4bad0d5a3435c778e672,d2069f64f6ee44342b32e2d2502e2c7f
10012191,8,2100075196779333405,正常天气,121.538324,39.187923,121.530354,39.191511,1581845962,1581845963,1581845990,1581848182,1581847043,3ab7b41810390894809c7eaad0e1fbc7,ac01144bc769a2948599f665df7b9cbe
10012191,8,2100075195035681901,正常天气,121.526718,39.195465,121.544564,39.200991,1581846201,1581846203,1581846530,1581850521,1581847283,cd23dc0fee18407e2dc71b83e6f24a7d,0952e6ab45647d2da346591e26d14a03
10012191,8,2100075195356710348,正常天气,121.528934,39.195101,121.530964,39.199651,1581846507,1581846508,1581846529,1581848308,1581847048,30fd1537990d9a3bf96396c551ff3da2,69b29ea274cb01778e077664195e8236
10012191,8,2100075197375678102,正常天气,121.53028,39.19881,121.537894,39.198461,1581847838,1581847843,1581847850,1581849638,1581848383,3871bd64012152bfb53fdf04b401193f,d4dadc60fe30d6cf5457e817c596d605
10012191,8,2100075199391532694,正常天气,121.53028,39.19881,121.533574,39.199521,1581848193,1581848197,1581848209,1581849993,1581848797,30fd1537990d9a3bf96396c551ff3da2,d4dadc60fe30d6cf5457e817c596d605
10012191,8,2100075200398885912,正常天气,121.546244,39.201121,121.550744,39.200721,1581848881,1581848882,1581848989,1581850681,1581849542,ae975e8d778deae086d66aecf4f631c1,fa39e3bb4def8b7ee13ce4dd27180fa5
10012191,8,2100075199859164184,正常天气,121.546244,39.201121,121.551764,39.204211,1581849944,1581849944,1581849949,1581851744,1581851024,a6b4e84b85a0f916af1878a663adcc44,fa39e3bb4def8b7ee13ce4dd27180fa5
10012191,9,2100075200884474904,正常天气,121.546244,39.201121,121.534574,39.209091,1581850752,1581850752,1581850789,1581852972,1581851832,d01d874c1b6092f473ea67763b482592,fa39e3bb4def8b7ee13ce4dd27180fa5
10012191,9,2100075200679249155,正常天气,121.533874,39.20609,121.552204,39.202361,1581851418,1581851421,1581851509,1581853578,1581852081,a6b4e84b85a0f916af1878a663adcc44,eed4f1d5524ac83d40bf32a8d3ce9000
10012191,9,2100075200996640238,正常天气,121.546541,39.195306,121.527764,39.200051,1581852421,1581852422,1581852495,1581855721,1581853322,76c06338f2ffca7f69267f2a990ea2fe,c56eb54d5d8447bdd5f877279adb8209
10012191,9,2100075201849295897,正常天气,121.533896,39.194629,121.531244,39.200521,1581852445,1581852641,1581852649,1581854785,1581854081,d509d30c8d9a6a6c8973eb1ccc516d49,0d1a0523148c54f43709749c60bbd84f
10012191,9,2100075202719811319,正常天气,121.530131,39.199348,121.528114,39.200081,1581852520,1581852521,1581852529,1581861520,1581853241,a35cc550db5d56afe25a682091637b2e,d28e848a1dabc9b41a3ba4d06c0b9644
10012191,10,2100075204093642139,正常天气,121.549861,39.206712,121.523744,39.195851,1581855784,1581856389,1581856428,1581858844,1581856850,d17d3f023322cec6876ba33c1cd05a05,9a8a95ec00f264f122617cf4cfc0d53e
10012191,10,2100075203924493598,正常天气,121.52986,39.204529,121.547824,39.206261,1581856310,1581856311,1581856368,1581858830,1581857031,a6b4e84b85a0f916af1878a663adcc44,1a981e52c29bec2de3a49244dbec440b
10012191,11,2100075204527359010,正常天气,121.549902,39.201576,121.540514,39.204381,1581860403,1581860455,1581860509,1581862683,1581861355,38d84f74a3a2076e3715afd4052af9c0,f6fa0e5c0cae98044718860bb02d2739
10012191,11,2100075205979243554,正常天气,121.549902,39.201576,121.550454,39.199701,1581860819,1581860848,1581860868,1581862919,1581861568,d38f87828b725e460db337a8c4be2b77,f6fa0e5c0cae98044718860bb02d2739
10012191,11,2100075205124294320,正常天气,121.526234,39.2013,121.522944,39.195971,1581861010,1581861011,1581861169,1581863410,1581862091,2b41bd1ee175b1d26aeaa989749b964a,411d30240a79e4d177c44f5bd682f775
100122337,0,2100075170891171049,正常天气,121.575775,39.210248,121.576144,39.204621,1581822531,1581822533,1581822546,1581825651,1581823913,4e1bd08fa0a0795b2b2b618340fd11fd,426ab2bdeb25e959cb46c7c717452d1e
100122337,0,2100075169692288233,正常天气,121.575775,39.210248,121.570804,39.204271,1581823111,1581823113,1581823277,1581826291,1581824613,fb80ae3669cedf2a42b316ba822b7e2c,426ab2bdeb25e959cb46c7c717452d1e
100122337,1,2100075187199182631,正常天气,121.583434,39.209721,121.594624,39.214441,1581840511,1581840512,1581840545,1581842791,1581841772,8e7e1329aaa121a22266e43f69da68b2,aab87237821c3a9cd511e1ff571bf193
100122337,1,2100075190328591441,正常天气,121.586128,39.211127,121.591624,39.203891,1581841394,1581841395,1581841445,1581843554,1581841625,635452f1ff3f050c4a57451633679331,deef62437a621422cf507ad472ef0a62
100122337,1,2100075191288858120,正常天气,121.58468,39.210107,121.601774,39.188611,1581841656,1581841657,1581841685,1581844536,1581842557,c15ed9f820121f0982866c025ef6a0de,79565b3aed354c451bcfcae05e0576f9
100122337,2,2100075192672978440,正常天气,121.58468,39.210107,121.550884,39.208111,1581843917,1581843918,1581843966,1581846917,1581844638,b1e177107ebbff5deabf5e0f83b13529,79565b3aed354c451bcfcae05e0576f9
100122337,2,2100075193603491336,正常天气,121.58468,39.210107,121.573134,39.204221,1581844073,1581844073,1581844085,1581846353,1581844973,4e1bd08fa0a0795b2b2b618340fd11fd,79565b3aed354c451bcfcae05e0576f9
100122337,3,2100075198778410705,正常天气,121.577354,39.214681,121.596684,39.206081,1581848202,1581848206,1581848478,1581851082,1581849106,3d0e445354222cb303c1a05f87d3182e,144a52b21e94b4fdd8442ec1eb53986d
100122337,3,2100075199421384200,正常天气,121.58468,39.210107,121.586324,39.205471,1581848447,1581848447,1581848465,1581851387,1581849347,b6298a1a733cc07ea912f9b5903d89c9,79565b3aed354c451bcfcae05e0576f9
100122337,3,2100075200107382159,正常天气,121.593345,39.204453,121.586594,39.205181,1581848767,1581848770,1581848826,1581850867,1581849550,38e8fa6766d1a571c902f9bed092a306,08d351b91b1079d7bbe20fcfd2cfb781
10012508,2,2100075194737166233,正常天气,121.52286,39.28612,121.541044,39.281021,1581845709,1581845711,1581845764,1581848049,1581846431,52edc4a5890adc59cec82cb60f8af691,a2dabad4c84d8f9f61d9001e0979eece
10012508,2,2100075198247896969,正常天气,121.548947,39.29085,121.537044,39.294491,1581848337,1581848698,1581848704,1581850977,1581849777,bda27fb38522cf5acf22a470f846fb97,ccfd8bf94b1f8e72e7fc2529e03dbbcc
10012508,3,2100075202986738891,正常天气,121.548452,39.290979,121.522524,39.290011,1581851233,1581851834,1581851884,1581855433,1581852853,09151fae518fbf4909da98373024bd92,beeb42855178a802b7831a9a5af0733a
10012508,3,2100075203648030601,正常天气,121.548947,39.29085,121.522054,39.296181,1581851673,1581852035,1581852064,1581854673,1581853113,e9aa84196fa1300e2d1db6d179bd440d,ccfd8bf94b1f8e72e7fc2529e03dbbcc
100134611,0,2100075166745691657,正常天气,121.374898,39.303465,121.358294,39.286761,1581820558,1581820561,1581820993,1581823258,1581821401,7fc50de5926f63efb6cbcddac88cb874,abcb290b5b6e83ccf5384ceced8f77e6
100134611,0,2100075168920470545,正常天气,121.37495,39.303615,121.372844,39.304451,1581821004,1581821004,1581821053,1581823404,1581821298,007e68ec65e7f62454f280baa6a4144a,6cb93dc32dbc8b1b1b12a85700ed91f3
100134611,0,2100075167545886711,正常天气,121.362149,39.291649,121.364624,39.282571,1581821810,1581821811,1581822193,1581823790,1581822471,029d9490197fb732eb8cea629da03239,3657bc0c499d3328bf0253bd46d1b29f
100134611,0,2100075168893077091,正常天气,121.356383,39.290137,121.375834,39.296521,1581822010,1581822559,1581822733,1581825790,1581823999,de5d403e367c169a6dde9f987c6b2f60,d620b8a499607de1d03da0716970f1be
100134611,0,2100075169689240609,正常天气,121.346021,39.287567,121.372514,39.304091,1581823030,1581823088,1581823093,1581825850,1581823988,007e68ec65e7f62454f280baa6a4144a,5338e9d66214faf34d1cbc077032d449
100134611,0,2100075171452782089,正常天气,121.374898,39.303465,121.347274,39.283611,1581824649,1581824653,1581824713,1581827529,1581825373,7fc50de5926f63efb6cbcddac88cb874,abcb290b5b6e83ccf5384ceced8f77e6
100134611,0,2100075173590074889,正常天气,121.374898,39.303465,121.361784,39.290771,1581825141,1581825147,1581825193,1581827421,1581825867,47522f7965d171a317b4838879f148db,abcb290b5b6e83ccf5384ceced8f77e6
100134611,0,2100075173385864731,正常天气,121.363066,39.29233,121.369704,39.284611,1581826099,1581826099,1581826333,1581827899,1581826699,5772ab3fcd9069a45e3fd5c96cf95a3b,7016d4896b14d98f84ab75c688e6587c
100134611,0,2100075175341393911,正常天气,121.362149,39.291649,121.380344,39.270161,1581826550,1581826550,1581826633,1581829430,1581827330,bdb63a81e3181bcfab4d1189f388363d,3657bc0c499d3328bf0253bd46d1b29f
100134611,1,2100075178816145399,正常天气,121.362149,39.291649,121.348084,39.305701,1581828683,1581828684,1581828733,1581830783,1581829584,d01efc08436be720103d9fb5289772e7,3657bc0c499d3328bf0253bd46d1b29f
100134611,1,2100075178318070961,正常天气,121.360791,39.292041,121.350254,39.302721,1581829429,1581829430,1581829453,1581831529,1581829970,9c7ac211d14ea4849541a4098dccf251,cea604727072b9e2871d59fe79e08973
100134611,2,2100075184106210825,正常天气,121.374898,39.303465,121.361684,39.293471,1581834914,1581834916,1581834973,1581836834,1581835636,47522f7965d171a317b4838879f148db,abcb290b5b6e83ccf5384ceced8f77e6
100134611,2,2100075183284028937,正常天气,121.374898,39.303465,121.357184,39.286491,1581835122,1581835127,1581835153,1581837822,1581835847,7fc50de5926f63efb6cbcddac88cb874,abcb290b5b6e83ccf5384ceced8f77e6
100134611,3,2100075187851035825,正常天气,121.360791,39.292041,121.365224,39.283331,1581840224,1581840225,1581840433,1581842024,1581840765,ce4ce3daaa2ab2aaf17b2ab245754601,cea604727072b9e2871d59fe79e08973
100134611,3,2100075189611300855,正常天气,121.362149,39.291649,121.349114,39.301911,1581840782,1581840783,1581841033,1581843122,1581841863,9c7ac211d14ea4849541a4098dccf251,3657bc0c499d3328bf0253bd46d1b29f
100147671,0,2100075159552362382,正常天气,121.420926,39.194048,121.443614,39.184791,1581776794,1581776795,1581821634,1581824700,1581778295,04318f1e82d442bcf0265014cfb5787d,9ffdda37a9ce278e918a0533a2352f36
100147671,0,2100075169946044218,正常天气,121.428362,39.196111,121.436344,39.185931,1581822352,1581822364,1581822414,1581824332,1581823024,49d032e8e8077f63b0d7537a16b1c775,5dcc754cfa1164b4645d76b91aaac997
100147671,1,2100075184722215995,正常天气,121.418897,39.198005,121.431644,39.189871,1581834980,1581834980,1581835013,1581837380,1581835880,5e15eaa29575208336584892dd687e34,d703827b8a8330616dfc66c6a1317a85
100147671,1,2100075185100194875,正常天气,121.418897,39.198005,121.426394,39.194391,1581835420,1581835421,1581835433,1581837760,1581836321,3a1430eddb8c25ca94fba2de9f4cb163,d703827b8a8330616dfc66c6a1317a85
100147671,2,2100075191382246450,正常天气,121.418887,39.197165,121.414454,39.201261,1581842259,1581842262,1581842273,1581844059,1581843342,936d8ad4ef8cf0f3116a0ac7917cb442,ccf6b730f4106aee95408d09aac96556
100147671,2,2100075192537351227,正常天气,121.418897,39.198005,121.415004,39.202121,1581842674,1581842675,1581842694,1581844894,1581843395,936d8ad4ef8cf0f3116a0ac7917cb442,d703827b8a8330616dfc66c6a1317a85
100147671,3,2100075194263471163,正常天气,121.418897,39.198005,121.418534,39.199221,1581844769,1581844770,1581844794,1581846989,1581845490,3a30be93eb45566a90f4e95ee72a089a,d703827b8a8330616dfc66c6a1317a85
100147671,3,2100075193724011579,正常天气,121.418897,39.198005,121.417214,39.199131,1581844935,1581844935,1581844973,1581847155,1581845655,3a30be93eb45566a90f4e95ee72a089a,d703827b8a8330616dfc66c6a1317a85
100149376,0,2100075164731147749,正常天气,121.452104,39.210076,121.461034,39.229841,1581814180,1581816042,1581819113,1581822000,1581817542,d32c4fb04bf19a99223f3d7ddee61e64,e3f9fc407a23df31bf54073da66c7708
100149376,0,2100075163289126205,正常天气,121.447182,39.206127,121.459754,39.229441,1581817957,1581817957,1581818754,1581821100,1581819457,d32c4fb04bf19a99223f3d7ddee61e64,dd6c4d242983aa7e4582d63ff9da4ccc
100149376,1,2100075189733492148,正常天气,121.45246,39.209743,121.455944,39.206421,1581842303,1581842304,1581842334,1581844584,1581843384,0a9ed6ca1371c74dfe36d3e5e9c2f450,fd6522552fd5f3f4021ee4b006ead4a7
100149376,1,2100075192877942032,正常天气,121.452364,39.209781,121.454204,39.207151,1581843176,1581843177,1581843233,1581845276,1581844077,0a9ed6ca1371c74dfe36d3e5e9c2f450,34e700f3e66eb8801d4304cd6d4f1224
100166169,0,2100075163624867706,正常天气,121.551889,39.151883,121.584544,39.150211,1581818182,1581818182,1581818235,1581821782,1581819682,e35b1d4531a409784613a3301bed7b98,89f54c797f5d951bf24fe19373b025a9
100166169,0,2100075164589819770,正常天气,121.551889,39.151883,121.580944,39.150381,1581818589,1581818589,1581818594,1581822189,1581820089,9ce7c01b297899021b4da548e623c511,89f54c797f5d951bf24fe19373b025a9
100166169,1,2100075170594097018,正常天气,121.551889,39.151883,121.572504,39.143091,1581822582,1581822582,1581822615,1581826182,1581823662,639c5d63b16cda36c7ccd34d6e3e1118,89f54c797f5d951bf24fe19373b025a9
100166169,1,2100075171209118879,正常天气,121.558704,39.154116,121.572644,39.147221,1581822651,1581822657,1581822675,1581826131,1581823917,e93c9d42a82adde33fe1225764987385,779f73940278e19e62d88732fa9241bc
100166169,1,2100075170011645087,正常天气,121.558704,39.154116,121.558204,39.154291,1581822724,1581822730,1581822735,1581824824,1581824350,e2c344b5e125b3f80c63abaab804515c,779f73940278e19e62d88732fa9241bc
100166169,1,2100075173183882937,正常天气,121.566684,39.15227,121.577284,39.150451,1581824492,1581824493,1581824536,1581827012,1581825153,35936504a37d53e03abdfbc7318d9ec7,b4b540e772f9bcfe98f4b5f1a6b32b54
100166169,1,2100075173828461696,正常天气,121.56796,39.152414,121.575734,39.150211,1581824561,1581824564,1581824595,1581827381,1581825584,35936504a37d53e03abdfbc7318d9ec7,5998e9c30f30e59a809f94bf50ae5808
100166169,1,2100075173531780694,正常天气,121.567466,39.152346,121.576604,39.152251,1581824663,1581824664,1581824715,1581827243,1581825924,4034ba036558a88cd33d6601a6f3e3dd,9495e4a5ec69c0273e8d9c09dcad5f56
100166169,1,2100075175170377154,正常天气,121.564986,39.156298,121.581584,39.168861,1581825479,1581825485,1581825857,1581828539,1581826925,ea02a6d26b40866aed0cdbeb69471ce2,223f7d5da10ede1b8ce507d0eeac2115
100166169,1,2100075173980571441,正常天气,121.56777,39.15463,121.581814,39.162491,1581825851,1581825851,1581825856,1581829031,1581827196,b1563a78ec59337587f6ab6397699afc,cfcd208495d565ef66e7dff9f98764da
100166169,1,2100075173376394430,正常天气,121.567575,39.156386,121.581684,39.161281,1581826042,1581826043,1581826095,1581828862,1581827003,8cb4b2d22536caa60f5b7baa02b3f4d3,41e134ef3b5ef5b5e7a5647d1ee33c49
100166169,2,2100075173278647605,正常天气,121.548738,39.158,121.583524,39.160011,1581825176,1581825178,1581833114,1581835500,1581826678,be2dcfd6669f21dcc869e7147fc3e888,77507dc0e06a0cc54c633014b70d3ce8
100166169,2,2100075176376272569,正常天气,121.566684,39.15227,121.561974,39.152141,1581828765,1581828766,1581828795,1581830625,1581829366,f2d3bfad8628644447b84404d311adbf,b4b540e772f9bcfe98f4b5f1a6b32b54
100166169,2,2100075177993963193,正常天气,121.566684,39.15227,121.555404,39.157911,1581828925,1581828926,1581828975,1581831085,1581829586,e6091e72331d335945f80129355f44da,b4b540e772f9bcfe98f4b5f1a6b32b54
100166169,2,2100075179395876552,正常天气,121.55864,39.153894,121.555394,39.155941,1581829397,1581829397,1581831794,1581833700,1581830278,a140547956ea3b638ce437cb6fed470e,ff5cdc66be5db986023f82e69d8cc1b6
100166169,2,2100075178634381010,正常天气,121.557322,39.153776,121.555054,39.157461,1581829670,1581829675,1581829695,1581831590,1581830395,e6091e72331d335945f80129355f44da,22e1e0e15b3aa6fcb7d4ff519cf141ec
100166169,2,2100075177674704801,正常天气,121.557914,39.156721,121.549594,39.163061,1581829858,1581829859,1581829995,1581832318,1581830939,9948ae33eb692651f7078a09ce60c8c4,d05aa2d19117f0c1f141891d08a0a617
100166169,2,2100075182463518150,正常天气,121.548314,39.158081,121.565344,39.158721,1581832961,1581832961,1581832994,1581835661,1581834221,0e6b3fe899598cd65d239c42ccec166d,a01317150fc9e5d931d0b4833a0e3413
100166169,2,2100075181576816027,正常天气,121.548474,39.158151,121.560224,39.160941,1581833324,1581833327,1581833354,1581835124,1581833987,458e21cdb775b6eaf137a5513b3bb557,9a6376840838ff74e9145404d1a11264
100166169,3,2100075182932985578,正常天气,121.565694,39.161135,121.571744,39.151881,1581835459,1581835760,1581835815,1581837979,1581836720,0fa4aa30416bca89085f8455aefc0337,82d202f292dc548f0c53e985c8a30672
100166169,3,2100075184466167637,正常天气,121.567528,39.153535,121.563294,39.162831,1581836087,1581836090,1581836114,1581838367,1581837530,b7ae58c77b0f68ece24b069d01f90e99,d5997865b077f91ea6440e00a337b5a3
100166169,3,2100075186353211222,正常天气,121.56753,39.152683,121.554594,39.168131,1581836348,1581836349,1581836354,1581839949,1581837429,55d593b47262d4b46948d24a269177aa,407e5680d8c79e27ce874dac110f0948
100166169,4,2100075172830020917,正常天气,121.548738,39.158,121.548964,39.168011,1581826142,1581826143,1581838694,1581840900,1581827643,5f2f76ca37983e4ac39c3984da6d528f,77507dc0e06a0cc54c633014b70d3ce8
100166169,4,2100075183631599238,正常天气,121.559276,39.161311,121.564854,39.145951,1581835393,1581835394,1581840134,1581842700,1581836894,5031801bbcf5fd624220ab54827fa85c,d27aa77788550794624d26adc2ec414b
100166169,4,2100075186843780818,正常天气,121.559273,39.161314,121.556274,39.147151,1581839572,1581839573,1581839594,1581842032,1581840473,9c634ef7a683377ad9839317707a8f3c,5efea49639ae930bcf5771044576d1f6
100166169,4,2100075189029963398,正常天气,121.559276,39.161311,121.565324,39.142551,1581840155,1581840156,1581840194,1581844415,1581842556,7788e37a8bc29014547465e11514ef61,d27aa77788550794624d26adc2ec414b
100166169,4,2100075188884342457,正常天气,121.566684,39.15227,121.571194,39.176121,1581841285,1581841286,1581841395,1581843985,1581842006,0dc806e15f85ccee78768eced3a5d032,b4b540e772f9bcfe98f4b5f1a6b32b54
100166169,4,2100075190625338662,正常天气,121.567171,39.154457,121.577854,39.180841,1581841508,1581841510,1581841514,1581845048,1581842590,5ad2c4fcd50df1eed61a17feea43bcae,e0b7b00f4116caba08a1bbb611eb2bec
100166169,4,2100075192218191545,正常天气,121.566684,39.15227,121.576854,39.176601,1581842301,1581842302,1581842354,1581845001,1581843022,6ae3b30637b89b588904a4b9313badf7,b4b540e772f9bcfe98f4b5f1a6b32b54
100166169,5,2100075194198853411,正常天气,121.568242,39.168318,121.577564,39.150761,1581844328,1581844330,1581844334,1581848648,1581846490,35936504a37d53e03abdfbc7318d9ec7,cc6a6abc159d35f469d6a4fbd85c1a31
100166169,5,2100075195251033274,正常天气,121.567731,39.170236,121.584124,39.152211,1581845714,1581845716,1581845775,1581849000,1581847216,4b31cf5fa9cb73e4e8f67174d2f0b7ee,1fc3d0b7ac24cab06e42d91da299f082
100166169,5,2100075195871299010,正常天气,121.564986,39.156298,121.583504,39.150841,1581846550,1581846554,1581846615,1581849310,1581847394,b5da9121a2795b63e224d64e3a7da447,223f7d5da10ede1b8ce507d0eeac2115
100166169,6,2100075199465981427,正常天气,121.56805,39.154157,121.585214,39.162231,1581848727,1581848740,1581848835,1581851607,1581849820,9ddc47481fb3efdc0bb96b503ee810ac,c801ee5ce5546b0130b3320770feb20b
100166169,6,2100075199508481523,正常天气,121.56805,39.154157,121.585214,39.162231,1581849043,1581849065,1581849074,1581851923,1581849965,9ddc47481fb3efdc0bb96b503ee810ac,c801ee5ce5546b0130b3320770feb20b
100166169,7,2100075200924386413,极恶劣天气,121.567624,39.152361,121.557824,39.152531,1581851428,1581851430,1581851475,1581854368,1581852690,4f5a97cf06cf69028997db51d8726d28,41085e15bbd4837ed7ad11ab59207d8a
100166169,7,2100075202005927450,正常天气,121.562826,39.153913,121.557964,39.152271,1581851435,1581851438,1581851474,1581853415,1581852218,4f5a97cf06cf69028997db51d8726d28,5d5b79ca15c962e9c085939015729e50
100166169,7,2100075201591346888,正常天气,121.55864,39.153894,121.562314,39.154851,1581852609,1581852610,1581852614,1581854829,1581853510,2205947dc5a5664ebeeefcea1268186d,ff5cdc66be5db986023f82e69d8cc1b6
100166169,7,2100075201636140570,正常天气,121.562824,39.153911,121.561744,39.156191,1581853718,1581853726,1581853753,1581855824,1581854686,5811d75a002f6c8c65a57fd259406441,5d5b79ca15c962e9c085939015729e50
100166267,0,2100075162606011451,正常天气,121.418897,39.198005,121.415944,39.213081,1581816089,1581816090,1581816173,1581819269,1581816990,0a17db46bd7f84b3d42c16796e538416,d703827b8a8330616dfc66c6a1317a85
100166267,0,2100075162946897472,正常天气,121.415063,39.196658,121.413644,39.206551,1581816515,1581816515,1581816533,1581819755,1581817775,2305bc56115791c5b8360cead2062c5e,0f78a9812d80b16ac7c41975c8799dae
100166267,1,2100075176499577906,正常天气,121.418887,39.197165,121.438104,39.190251,1581827411,1581827414,1581827454,1581829691,1581828194,5b607c31459cf4ef75ddaab7b06ed4b1,ccf6b730f4106aee95408d09aac96556
100166267,1,2100075178421126884,正常天气,121.428439,39.19615,121.433284,39.192641,1581827781,1581827783,1581827814,1581830001,1581828683,69436d4ae309d5078cc59b68964d9671,6b18cb3d17854e9fbb6c9630d1908dfe
100170616,1,2100075170705508255,正常天气,121.472617,39.199217,121.471864,39.192141,1581822890,1581823493,1581823515,1581825890,1581825053,9533171ff446ebddd39cf78eebc5a272,64cf0ecac2051c398c170b4c78d9a334
100170616,1,2100075175178897311,正常天气,121.472617,39.199217,121.484654,39.195031,1581824942,1581825545,1581825554,1581828242,1581826122,251aac4d0e9a935ee94378aa1b456be9,64cf0ecac2051c398c170b4c78d9a334
100170616,1,2100075172786898557,正常天气,121.472405,39.19925,121.489664,39.194841,1581825934,1581825935,1581825974,1581828094,1581826655,62a069dbc4d470f664866406e1b12ab3,503dc62baccd18e725f3ce11b4870a0c
100170616,2,2100075176968488573,正常天气,121.472405,39.19925,121.479524,39.198451,1581828600,1581828601,1581828614,1581830580,1581829501,c60ae9792dea4c803bfcde33a451942c,503dc62baccd18e725f3ce11b4870a0c
100170616,2,2100075177952937678,正常天气,121.468303,39.199595,121.472514,39.199591,1581828648,1581828651,1581828674,1581830448,1581829371,e96b8c29363a11b3de0101a4338d8a76,54bde0cd20b05b79728760b2620b9659
100170616,4,2100075184782575339,正常天气,121.476607,39.191107,121.493824,39.180671,1581835508,1581835509,1581835514,1581838628,1581836709,7a3ec237f57b9506d5e2543bc6114704,18410a7c019c8f6afbb4b473cc9aaa5b
100170616,4,2100075182992361166,正常天气,121.468303,39.199595,121.484674,39.181181,1581836519,1581836525,1581836574,1581839279,1581837185,ee11c0326135b0c2b5c97859f2da8515,54bde0cd20b05b79728760b2620b9659
100170616,7,2100075197169436575,正常天气,121.472617,39.199217,121.470734,39.200081,1581846193,1581846796,1581846854,1581849013,1581846662,2f6569f698c9954620586559de99683e,64cf0ecac2051c398c170b4c78d9a334
100170616,7,2100075196268709791,正常天气,121.472617,39.199217,121.461064,39.194821,1581846548,1581847150,1581847154,1581849728,1581848770,0132dfcbef44f8e112f404815c1fd192,64cf0ecac2051c398c170b4c78d9a334
100170616,7,2100075197227337631,正常天气,121.472617,39.199217,121.476334,39.196061,1581846575,1581847178,1581847214,1581849395,1581848678,9bbe86b0ad25a3ad63ef58b3a8b2edea,64cf0ecac2051c398c170b4c78d9a334
100170616,7,2100075196976596128,正常天气,121.459229,39.194502,121.496294,39.198991,1581846977,1581847580,1581847634,1581851297,1581849500,72e8bed033dc3d6632aa6c3ab6838b9b,b95295b98f8ecc80e0079a3d5b99864b
100170616,8,2100075199601280927,正常天气,121.472617,39.199217,121.461394,39.191391,1581849490,1581850092,1581850094,1581852370,1581851110,81eb13f80827bb7a05da5f710b9ee8e3,64cf0ecac2051c398c170b4c78d9a334
100170616,8,2100075199928698783,正常天气,121.472617,39.199217,121.460244,39.191141,1581849891,1581850493,1581850514,1581852951,1581851873,81eb13f80827bb7a05da5f710b9ee8e3,64cf0ecac2051c398c170b4c78d9a334
100170616,9,2100075202457438111,正常天气,121.472617,39.199217,121.490004,39.187081,1581853797,1581854399,1581854414,1581857517,1581855959,cdd7166b50b68f0eb3d4dcb340a134b9,64cf0ecac2051c398c170b4c78d9a334
100170616,9,2100075202292909554,正常天气,121.483788,39.186741,121.489664,39.187171,1581855195,1581855195,1581855254,1581858795,1581856275,cdd7166b50b68f0eb3d4dcb340a134b9,5bdde687f8ae4f69d795a9e7632971d7
100177162,1,2100075170598618490,正常天气,121.603778,39.09311,121.613874,39.098891,1581822645,1581822646,1581822704,1581831645,1581823546,935c263a9eb5892d9c8c85369b1dd86d,c86b9ba2f57980fbb139f25d9ec821dd
100177162,1,2100075170163361026,正常天气,121.607364,39.093835,121.600614,39.086471,1581823894,1581823895,1581823904,1581826834,1581825095,7ba84aeb3e455d9296a52381bd81f8f2,3b8ff45659104fedaa63f66821ddef5b
10021791,0,2100075165926754130,正常天气,121.44382,39.210261,121.465454,39.217321,1581820680,1581820680,1581820734,1581823200,1581821580,36a93a495579539dda52e8047c35cb09,dada77ecc93e559bdad32421b6cefe9a
10021791,0,2100075168094717077,正常天气,121.446604,39.210091,121.459004,39.214431,1581821211,1581821212,1581821274,1581823071,1581821932,433e9b51074bbbbda97d21038b4894e6,724cb98f99760fa62c34bb6b103129e7
100240426,0,2100075171551807451,正常天气,121.460368,38.949692,121.449264,38.967531,1581822926,1581822926,1581824008,1581825866,1581823766,49d4b2faeb4b7b9e745775793141e2b2,4bbd84b81e665b6207105218aa225688
100240426,0,2100075171553477770,正常天气,121.441448,38.948873,121.452804,38.965531,1581822943,1581822944,1581822959,1581831943,1581823652,4264fae28209135433d153a665b7960c,bf0455d91fea8a1b18242e63b2b88b9a
100240426,0,2100075171942040778,正常天气,121.446004,38.953551,121.456714,38.958051,1581823538,1581823542,1581823558,1581825338,1581824262,d60199b89a835fbdc4cb88a22f09f0d1,37e28623831c8485212ad333668f60d0
100240426,1,2100075175224050951,正常天气,121.445014,38.948537,121.456044,38.945211,1581825912,1581825913,1581826139,1581828072,1581826633,9f8c19f29cc11704fd6bc6fd0046b9bc,661d852dfe4867978642efdbd288ba58
100240426,1,2100075174433064357,正常天气,121.452396,38.949151,121.440464,38.950701,1581826519,1581826520,1581826559,1581828739,1581827240,8a165b85e6fcd3c9cc27f3a9d09bc412,6cb98936ea98dc1000a2fd5351059bd2
100240426,2,2100075179827300293,正常天气,121.445402,38.94851,121.450404,38.968871,1581830473,1581830474,1581830518,1581833533,1581831914,258b6b6f904560c787a0517da486f7b0,1207a5d10429f237950992b90aea7a6e
100240426,2,2100075179910170236,正常天气,121.444214,38.94859,121.455184,38.965701,1581831423,1581831426,1581831479,1581834243,1581832326,c548476ebca77216098688d61b59d72e,1618c1b7bcddadb122be2ab28c521a53
100240426,2,2100075180568741127,正常天气,121.445014,38.948537,121.445464,38.953891,1581831624,1581831625,1581831659,1581833544,1581832345,ef70cc279b163400cad323381a3b3a0b,661d852dfe4867978642efdbd288ba58
100240426,2,2100075182800504788,正常天气,121.456602,38.952672,121.448704,38.950821,1581833530,1581833531,1581833578,1581836650,1581834251,84ce77d3407920309c919289d82a9778,4ff5803ff37d29e3243bf01117b9bc71
100240426,2,2100075184319169865,正常天气,121.45651,38.94951,121.456174,38.946141,1581834040,1581834041,1581834059,1581836020,1581835121,f6cac4b3830732cd3a70016b3ec8edf7,4c3228a8895097ac87218789db5e724c
100240426,3,2100075184435365820,正常天气,121.446546,38.940333,121.436944,38.947811,1581835589,1581835590,1581835618,1581837629,1581836190,ea65211f504f775b89be65e2abfc8726,2b7400cc98f0b5a6c0a2a4b0d4740e0d
100240426,3,2100075186005411079,正常天气,121.445014,38.948537,121.454964,38.955701,1581835915,1581835916,1581836038,1581837835,1581836636,b60c92ae1c45aef98f49542664a445e6,661d852dfe4867978642efdbd288ba58
100240426,3,2100075186612372590,正常天气,121.456242,38.955212,121.425194,38.943651,1581836666,1581836667,1581836698,1581839546,1581837567,07650ba2526e11f4960c5bfa1c66039c,b3f592095b6d78128671d549aa06e7f4
100240426,4,2100075186573608199,正常天气,121.445014,38.948537,121.456974,38.951981,1581838734,1581838735,1581838738,1581840714,1581839635,47b354d6b5415383843632339bb1c497,661d852dfe4867978642efdbd288ba58
100240426,4,2100075188080706639,正常天气,121.444851,38.948215,121.451314,38.953281,1581839456,1581839473,1581839518,1581841436,1581840073,676faf0939273a72e80e76b7ebcfe3e3,7676e14550712525577adc0937cce9b3
100240426,4,2100075189319468600,正常天气,121.45553,38.955145,121.457054,38.955251,1581840010,1581840011,1581840058,1581842110,1581840911,d9eeeed641f3ce00a10fedc726ad8c79,a3a248aae17267b881478e3262a107f1
100240426,4,2100075187171001899,正常天气,121.457008,38.950692,121.451234,38.959691,1581840122,1581840123,1581840178,1581842402,1581840843,149fd38f88a6328db7a2bf40affd2673,15a179e71a5bc56eafbe7cc699fc1928
100240426,4,2100075189926889137,正常天气,121.467909,38.954556,121.473034,38.973791,1581840322,1581840341,1581840778,1581843142,1581841718,276c0c7251d70bda1e9334ab5d92faaa,fa82518a06fa15517574ba35265da082
100240426,4,2100075190873720376,正常天气,121.45553,38.955145,121.462784,38.973331,1581840876,1581840876,1581840958,1581843636,1581841776,247d4840ed60c7c02661a99c50d17e53,a3a248aae17267b881478e3262a107f1
100240426,5,2100075194572310297,正常天气,121.444984,38.951231,121.437754,38.953441,1581844079,1581844622,1581844678,1581846659,1581844795,71e0d5dfc8cc6496344089ef34fca9bb,a00319766cb8077c80b80651c5841e72
100240426,5,2100075194611336525,正常天气,121.440421,38.955427,121.436784,38.953571,1581844936,1581844936,1581844978,1581847396,1581846256,6c470185f8185575a889f4c12adb2833,7ea4166215075c0c71c8542ba4215d3a
100240426,6,2100075195776927468,正常天气,121.435057,38.948705,121.435994,38.949741,1581847775,1581847778,1581847799,1581849875,1581848678,faaa10bd98da3f4c37de635ed4f4c220,72fae0d995022c82f3d413028ab43ff2
100240426,6,2100075198632428661,正常天气,121.444177,38.949747,121.434874,38.952091,1581849116,1581849116,1581849299,1581851516,1581850016,3d24995a69b574f5aca45124f6493f68,46a85abc8dfa1b20265ea9be97c47a92
100240426,6,2100075198933665031,正常天气,121.445014,38.948537,121.447364,38.942951,1581849676,1581849677,1581849839,1581851656,1581850577,16745dae3eb70ba187a49c15de15f219,661d852dfe4867978642efdbd288ba58
100240426,6,2100075201705837897,正常天气,121.45651,38.94951,121.459124,38.957231,1581850822,1581850823,1581850858,1581852922,1581851903,bdb6920adcd0457aa17b53b22963dad9,4c3228a8895097ac87218789db5e724c
100240426,7,2100075206624314507,正常天气,121.445883,38.958158,121.423684,38.943641,1581860445,1581860447,1581860651,1581863265,1581861347,07650ba2526e11f4960c5bfa1c66039c,e5ad64db0ef9ba22939773df1e24e593
100240426,7,2100075204725146739,正常天气,121.452249,38.949458,121.426524,38.942031,1581860580,1581860633,1581860638,1581863340,1581861353,679a46f3fe68c0b4d9145268d6efc957,f5bb3e1d548714a7783336cae1c861f1
10037225,0,2100075159259580341,正常天气,121.543514,39.159146,121.544954,39.160651,1581778243,1581778244,1581819219,1581821100,1581779744,3027f6b0951f988cde385da9d16d9a49,1e820945a20767e981e0721fe89183cf
10037225,0,2100075166026008501,正常天气,121.543514,39.159146,121.539574,39.158531,1581818681,1581818681,1581818739,1581820841,1581819581,ceb01bad9370210a3ff698eb7898778e,1e820945a20767e981e0721fe89183cf
10037225,0,2100075165208610741,正常天气,121.543514,39.159146,121.531554,39.162821,1581818984,1581818985,1581819039,1581821204,1581819885,ef9cb423ea3af6da603093394eeefd4e,1e820945a20767e981e0721fe89183cf
10037225,1,2100075166771545611,正常天气,121.521218,39.163793,121.528874,39.165711,1581820199,1581820799,1581820839,1581822359,1581821459,a07498a1fc326947b7b9b098fd737d2e,57359ed3b313755fd8fd04832e27bd75
10037225,1,2100075166267180555,正常天气,121.521218,39.163793,121.528874,39.165711,1581820350,1581820951,1581820959,1581822390,1581821610,a07498a1fc326947b7b9b098fd737d2e,57359ed3b313755fd8fd04832e27bd75
10037225,2,2100075168786286333,正常天气,121.530454,39.159413,121.519344,39.176511,1581821733,1581821767,1581821799,1581824700,1581823267,79bf9f4c518dfd852e6dc16263b8082e,71cd3a1cb01f919bbd6f4fe6d8917d03
10037225,2,2100075169335772788,正常天气,121.529704,39.160908,121.526524,39.160591,1581822241,1581822243,1581822279,1581824041,1581823143,3d6bc9062fdcd27acc772465049739c1,8d187c4ce8d7e289b0be02bb0b8c5632
10037225,3,2100075172339680922,正常天气,121.532148,39.158962,121.522714,39.179641,1581823920,1581823921,1581824020,1581826920,1581825001,5fb89d9ea2faf0ce3000b166a8b75247,a98ed618ff14e9b7a2e55431cb122647
10037225,3,2100075170498676378,正常天气,121.532148,39.158962,121.530974,39.163181,1581824304,1581824305,1581824319,1581826284,1581825385,75285d1da556683d9773520e49609b75,a98ed618ff14e9b7a2e55431cb122647
10038649,0,2100075167857608291,正常天气,121.356383,39.290137,121.359334,39.280151,1581821831,1581822381,1581822433,1581824711,1581823631,3decf7ddab8d49123dc73ca4878f8f2e,d620b8a499607de1d03da0716970f1be
10038649,0,2100075170700036087,正常天气,121.362149,39.291649,121.369704,39.284621,1581823454,1581823455,1581823693,1581825314,1581824115,5772ab3fcd9069a45e3fd5c96cf95a3b,3657bc0c499d3328bf0253bd46d1b29f
10038649,0,2100075171158394871,正常天气,121.362149,39.291649,121.357454,39.301261,1581824138,1581824139,1581824293,1581826058,1581825039,c8e3a9d2bd4ba7500f058258a301bd51,3657bc0c499d3328bf0253bd46d1b29f
10038649,0,2100075172436477449,正常天气,121.374898,39.303465,121.368654,39.304281,1581824722,1581824725,1581824833,1581826582,1581825445,70bced6522ff3188af88e5900c9d25c5,abcb290b5b6e83ccf5384ceced8f77e6
10038649,0,2100075173304370697,正常天气,121.374898,39.303465,121.370474,39.302551,1581825279,1581825284,1581825313,1581827079,1581826004,e24d56f6003e939978b877342be43869,abcb290b5b6e83ccf5384ceced8f77e6
10038649,1,2100075174650807817,正常天气,121.374898,39.303465,121.361784,39.290771,1581826067,1581826071,1581826093,1581828167,1581826791,47522f7965d171a317b4838879f148db,abcb290b5b6e83ccf5384ceced8f77e6
10038649,1,2100075172830643721,正常天气,121.374898,39.303465,121.370194,39.303231,1581826143,1581826146,1581826153,1581827943,1581826866,51385cb2bf0f114c0172ef92627f82cd,abcb290b5b6e83ccf5384ceced8f77e6
10038649,1,2100075175867418615,正常天气,121.362149,39.291649,121.360094,39.296281,1581826621,1581826622,1581826753,1581828541,1581827342,c8e3a9d2bd4ba7500f058258a301bd51,3657bc0c499d3328bf0253bd46d1b29f
10038649,1,2100075174751438839,正常天气,121.362149,39.291649,121.348084,39.305701,1581826725,1581826726,1581826813,1581829005,1581827446,d01efc08436be720103d9fb5289772e7,3657bc0c499d3328bf0253bd46d1b29f
10038649,1,2100075175084197879,正常天气,121.362149,39.291649,121.355714,39.291341,1581826970,1581826971,1581827053,1581828770,1581827631,64c31821603ab476a318839606743bd6,3657bc0c499d3328bf0253bd46d1b29f
10038649,1,2100075176807106551,正常天气,121.362149,39.291649,121.348084,39.305701,1581827371,1581827372,1581827413,1581829651,1581828032,d01efc08436be720103d9fb5289772e7,3657bc0c499d3328bf0253bd46d1b29f
10038649,1,2100075177843361339,正常天气,121.349933,39.303454,121.333854,39.315611,1581827997,1581827997,1581828073,1581831417,1581829077,b6a1085a27ab7bff7550f8a3bd017df8,09d4fcce21092d819742146f2c54fe93
10038649,2,2100075179505616049,正常天气,121.360791,39.292041,121.350864,39.289641,1581830240,1581830241,1581830293,1581832040,1581830781,c8e3a9d2bd4ba7500f058258a301bd51,cea604727072b9e2871d59fe79e08973
10038649,2,2100075181368051703,正常天气,121.362149,39.291649,121.358154,39.295141,1581830690,1581830691,1581830773,1581832490,1581831591,c8e3a9d2bd4ba7500f058258a301bd51,3657bc0c499d3328bf0253bd46d1b29f
10038649,2,2100075179885234167,正常天气,121.362149,39.291649,121.349734,39.283651,1581830839,1581830839,1581830893,1581832999,1581831499,7fc50de5926f63efb6cbcddac88cb874,3657bc0c499d3328bf0253bd46d1b29f
10038649,2,2100075179941397537,正常天气,121.346021,39.287567,121.347454,39.284731,1581831525,1581831698,1581831733,1581833625,1581832598,7fc50de5926f63efb6cbcddac88cb874,5338e9d66214faf34d1cbc077032d449
10038653,0,2100075167604868635,正常天气,121.363066,39.29233,121.346284,39.305011,1581819756,1581819757,1581819793,1581822036,1581820357,467390822a3e1c0861201d5da8a5dfb4,7016d4896b14d98f84ab75c688e6587c
10038653,0,2100075167993923131,正常天气,121.349933,39.303454,121.358704,39.295851,1581820337,1581820337,1581820633,1581823517,1581821417,c8e3a9d2bd4ba7500f058258a301bd51,09d4fcce21092d819742146f2c54fe93
10038653,0,2100075166863329271,正常天气,121.362149,39.291649,121.359324,39.280061,1581821396,1581821397,1581821413,1581823856,1581822477,3decf7ddab8d49123dc73ca4878f8f2e,3657bc0c499d3328bf0253bd46d1b29f
10038653,0,2100075169895155703,正常天气,121.362149,39.291649,121.373484,39.295871,1581822089,1581822089,1581822236,1581824009,1581822989,524bfdb811501f589283436f89cfc72d,3657bc0c499d3328bf0253bd46d1b29f
10038653,0,2100075169220691483,正常天气,121.363066,39.29233,121.360094,39.296281,1581823016,1581823017,1581823033,1581824876,1581824097,c8e3a9d2bd4ba7500f058258a301bd51,7016d4896b14d98f84ab75c688e6587c
10038653,0,2100075170996618779,正常天气,121.363066,39.29233,121.344844,39.302001,1581823089,1581823090,1581823093,1581825609,1581823690,5dba4b294d7f1ea7d7ef295ca8c23b42,7016d4896b14d98f84ab75c688e6587c
10038653,0,2100075170104936439,正常天气,121.362149,39.291649,121.359204,39.302121,1581823321,1581823322,1581823333,1581825421,1581824042,c8e3a9d2bd4ba7500f058258a301bd51,3657bc0c499d3328bf0253bd46d1b29f
10038653,1,2100075171177104955,正常天气,121.349933,39.303454,121.360094,39.296281,1581824233,1581824234,1581824473,1581827533,1581826034,c8e3a9d2bd4ba7500f058258a301bd51,09d4fcce21092d819742146f2c54fe93
10038653,1,2100075173528569847,正常天气,121.362149,39.291649,121.384694,39.283771,1581824641,1581824642,1581824653,1581827161,1581825542,553725f8232692039d1841a23f4eb72a,3657bc0c499d3328bf0253bd46d1b29f
10038653,2,2100075173976606711,正常天气,121.362149,39.291649,121.382714,39.296181,1581825834,1581825835,1581825853,1581828234,1581826495,a5f8386e1e38563855a6f5de977c988a,3657bc0c499d3328bf0253bd46d1b29f
10038653,2,2100075174947031031,正常天气,121.362149,39.291649,121.387154,39.295981,1581826026,1581826026,1581826033,1581828246,1581826686,d8bfad09a1dbfbd9e04299a0c0de47cb,3657bc0c499d3328bf0253bd46d1b29f
10038653,3,2100075179692656137,正常天气,121.374898,39.303465,121.348214,39.304341,1581831952,1581831957,1581831973,1581834172,1581832677,6509cbf63fac3a0f6a0aa5bd221c7ec8,abcb290b5b6e83ccf5384ceced8f77e6
10038653,3,2100075181806650889,正常天气,121.374898,39.303465,121.347214,39.300241,1581832077,1581832079,1581832093,1581834417,1581832799,bda8bd659fd9aaa3785d9fd386fc46ea,abcb290b5b6e83ccf5384ceced8f77e6
10038653,3,2100075182106805769,正常天气,121.374898,39.303465,121.374194,39.304941,1581832256,1581832260,1581832273,1581834056,1581832980,007e68ec65e7f62454f280baa6a4144a,abcb290b5b6e83ccf5384ceced8f77e6
10038653,4,2100075192059824119,正常天气,121.362149,39.291649,121.372524,39.298021,1581843274,1581843274,1581843313,1581845554,1581844354,3bde8d644855e72c3ed1fc5228fa94c1,3657bc0c499d3328bf0253bd46d1b29f
10038653,4,2100075192984668151,正常天气,121.362149,39.291649,121.372264,39.303941,1581844280,1581844280,1581844333,1581846920,1581845360,007e68ec65e7f62454f280baa6a4144a,3657bc0c499d3328bf0253bd46d1b29f
10038653,4,2100075193342986231,正常天气,121.362149,39.291649,121.387404,39.296201,1581844705,1581844705,1581844753,1581847465,1581845785,c3a7dc180c2624e5821ad17c9a6eef2c,3657bc0c499d3328bf0253bd46d1b29f
10038653,4,2100075193348851703,正常天气,121.362149,39.291649,121.369704,39.284621,1581844749,1581844750,1581844754,1581847209,1581845650,5772ab3fcd9069a45e3fd5c96cf95a3b,3657bc0c499d3328bf0253bd46d1b29f
10038661,0,2100075173120411157,正常天气,121.421871,39.254089,121.423634,39.249441,1581827018,1581827021,1581827049,1581829478,1581828041,06b15e3de8cfb49cc27fce042f698409,418814ae1b69330acb74284c7aea517b
10038661,0,2100075177791555093,正常天气,121.421871,39.254089,121.424804,39.250571,1581827588,1581827589,1581827649,1581829928,1581828789,06b15e3de8cfb49cc27fce042f698409,418814ae1b69330acb74284c7aea517b
10038661,0,2100075176968422543,正常天气,121.424698,39.253214,121.418804,39.248581,1581828590,1581828601,1581828609,1581830750,1581829681,c384b4464c30ba7a233445bce3f74e97,0cb2e4eb02112137b0491f7d5d9cac93
10038661,1,2100075178197976966,正常天气,121.410581,39.251449,121.397054,39.249571,1581828695,1581828695,1581831249,1581833700,1581830195,96629f1aac6ddb7a7cfa82574b6722d4,6def616410c29d25f2cdcd096f7d2b67
10038661,1,2100075179049125743,正常天气,121.42514,39.24911,121.395974,39.250641,1581830884,1581831185,1581831189,1581834244,1581832144,96629f1aac6ddb7a7cfa82574b6722d4,6b72e396bf24f5a82d19f2590ca9278b
10038661,1,2100075182695417017,正常天气,121.390247,39.247874,121.395634,39.236231,1581832473,1581832476,1581832508,1581835053,1581833376,49a0f0b7958fd98714ea4a4ca70ea3ec,dd6029c6fbc3ae3c20d23c803e50fb0b
10038661,2,2100075184288368211,正常天气,121.425059,39.252585,121.435544,39.251751,1581836803,1581836804,1581837728,1581840223,1581838064,1ab31183f70b2a35357ca8b53ffc2dee,00bb99400fc33cf186c98acbdc84ac43
10038661,2,2100075187422627168,正常天气,121.423778,39.245344,121.430484,39.234001,1581838489,1581838509,1581838568,1581840649,1581839289,2b6f6d15903f31cd59a466a537b5b68a,8ba4c68b074715029aa34f2b48de3022
10038661,3,2100075191566566894,正常天气,121.4126,39.242456,121.416204,39.263771,1581842009,1581842011,1581842049,1581844769,1581842911,de87acef93e0b65f8910a556a173df39,ecebadc133ef68f614ca093ea21784b8
10038661,3,2100075189500282802,正常天气,121.41347,39.243032,121.416854,39.249881,1581842181,1581842182,1581842228,1581844281,1581842962,896cdc5df020e832f2eb4e23d059ddea,a5a3b280416b20c30958a9b3220b73ca
10038661,4,2100075196826715872,正常天气,121.425159,39.252415,121.431694,39.257141,1581846305,1581846306,1581846309,1581848645,1581847206,4d43a5ee2fb8d68851d000abe17c3f13,e7689201c4d8b42b079ad022a2685b6c
10038661,4,2100075195995489423,正常天气,121.424698,39.253214,121.428064,39.269741,1581847417,1581847422,1581847449,1581850297,1581848202,4c8520346ee407f4c4f826b1cff6603b,0cb2e4eb02112137b0491f7d5d9cac93
10038661,4,2100075199515788444,正常天气,121.42691,39.255186,121.446274,39.254251,1581849096,1581849096,1581849309,1581851436,1581849936,0fc29cec8fc751774161e6f62ce08542,a6ccb0755af12ff80074c7474eb20645
10038661,6,2100075202084538026,正常天气,121.406414,39.242076,121.417104,39.248081,1581852255,1581852261,1581852309,1581854175,1581852981,c384b4464c30ba7a233445bce3f74e97,c126cf9b5f7b523b1bc2de9e281a610a
10038661,6,2100075203366225286,正常天气,121.413593,39.242075,121.410134,39.250231,1581852529,1581852537,1581852548,1581854329,1581853257,7528b8d7cbb24924585a98f4a94f41f8,942eb177868ad8058ee079cdda0cec4a
10039046,0,2100075172459218799,正常天气,121.42514,39.24911,121.396954,39.262331,1581824612,1581824913,1581824950,1581827552,1581825872,ce4f0d66f80785f396ee7b56ff98f702,6b72e396bf24f5a82d19f2590ca9278b
10039046,0,2100075174160074357,正常天气,121.425308,39.248797,121.396194,39.266431,1581824710,1581824711,1581824769,1581827770,1581825431,33ef02545917e86ce42f02ac43979dff,9f90d6e67a4e4d0e13f947604a4dd8c0
10039046,0,2100075174231181167,正常天气,121.42514,39.24911,121.403524,39.259681,1581824712,1581825013,1581825069,1581827472,1581825972,5b1f9cda99fb51a0affcd2eee4f9ab0c,6b72e396bf24f5a82d19f2590ca9278b
10039046,0,2100075172136585071,正常天气,121.42514,39.24911,121.396484,39.262051,1581825034,1581825334,1581825370,1581828274,1581826474,ce4f0d66f80785f396ee7b56ff98f702,6b72e396bf24f5a82d19f2590ca9278b
100429202,0,2100075169848394777,正常天气,121.374011,39.135793,121.374634,39.113161,1581824095,1581824095,1581824146,1581826855,1581824815,e63ba496ec0294661d13a9675f70b736,af62ecc30266ad244ea54e3af929539b
100429202,0,2100075170197767193,正常天气,121.374011,39.135793,121.360824,39.108981,1581824133,1581824133,1581824145,1581827193,1581824973,0d0a42c2e6c06ac5c8a9dd4d041739ed,af62ecc30266ad244ea54e3af929539b
100429202,1,2100075178222618108,正常天气,121.365609,39.121077,121.349044,39.120181,1581828177,1581828821,1581828825,1581831057,1581829797,61bc38c0e53cba286fb22fc9ad43e219,994c3d29cd912661b9fac13346f786c1
100429202,1,2100075178796222162,正常天气,121.365185,39.121072,121.349124,39.117121,1581828553,1581828554,1581828585,1581831313,1581829694,f3f57bd3e20bdd226dc7e958855c1673,23c01ec88be42215a4e31f9ec04ee291
100429202,2,2100075179343447845,正常天气,121.36005,39.121052,121.335074,39.119981,1581831202,1581831206,1581831225,1581833422,1581832106,e88f243bf341ded9b4ced444795c3f17,da8e8dac58293acc4c85c4aa92da4cbd
100429202,2,2100075181697926267,正常天气,121.378204,39.123002,121.331554,39.127781,1581831210,1581831212,1581831224,1581835530,1581833912,4a96a00d3fb8c67574c7a8c85df75e5d,9ce4eb7854b68052a15bd2e4a5026c03
100429202,3,2100075185331275270,正常天气,121.377624,39.136541,121.372524,39.135961,1581835218,1581835237,1581835246,1581837378,1581836137,87009b5275ecf662f67c25e3ead5b34c,d311e349e90b5356a87e0e87830b8e45
100429202,3,2100075185984931237,正常天气,121.373504,39.135871,121.385484,39.124881,1581835728,1581835732,1581835845,1581837708,1581836332,fcf331ced9dc75b86df1fcff62c0a776,f6f667fc164958c4f22e25e2ed011339
100429202,4,2100075184178922870,正常天气,121.373671,39.135134,121.377324,39.142731,1581835771,1581835771,1581837045,1581839100,1581835923,e84913fd31254850a37d3378b2e92557,6cd62702d7f20133050274060296a21f
100429202,4,2100075186420614581,正常天气,121.376732,39.135899,121.357784,39.126571,1581837423,1581837424,1581837464,1581840063,1581838144,dc7c89177ad87489ee1ebbca08991a26,478c81b3545dbcb16aa5bfaba7a04ae1
100429202,4,2100075186519770533,正常天气,121.373504,39.135871,121.372904,39.130811,1581838137,1581838144,1581838185,1581839937,1581838864,6188c473af6f97456550b5a93fab6a51,f6f667fc164958c4f22e25e2ed011339
10043801,0,2100075170321237566,正常天气,121.437654,39.124855,121.419914,39.130631,1581822870,1581822871,1581823217,1581825270,1581823591,ae35d8b0b1e5654cc85f1a2904372d7b,7154a8f9e9e2a258f79f2734db2bee6b
10043801,0,2100075172194027392,正常天气,121.439564,39.117173,121.422394,39.130311,1581823170,1581823171,1581823216,1581825870,1581824071,ae35d8b0b1e5654cc85f1a2904372d7b,038321bee5fd808bef3b3baa45c97eab
10043801,1,2100075173390648676,正常天气,121.453081,39.131982,121.465584,39.144191,1581825842,1581826143,1581826335,1581829322,1581827462,fb642b781020b2aaeb1a7cee29acc915,403458902a71a455d3feac7e99885b19
10043801,1,2100075172818683893,正常天气,121.449298,39.115643,121.451954,39.127361,1581826097,1581826099,1581826155,1581828257,1581826759,2a513e3fe6a22944d6ddfabfaa7333d1,56640f5a15506e7f617cc4e7f1ced85b
10043801,1,2100075172832904861,正常天气,121.454071,39.131391,121.466994,39.141161,1581826158,1581826159,1581826334,1581829578,1581827779,828053bb967862f11af8b530be1dcad2,2a105749194b245dc8fed18134ced7a6
10043801,1,2100075175580304891,正常天气,121.452841,39.131685,121.458904,39.137531,1581826356,1581826357,1581826395,1581828876,1581827437,7874f8cb3ac07e03c15d127ae5f5560d,fdcb77a51fb333d5bd2f1cdc4a0a9b7c
10043801,2,2100075181012748102,正常天气,121.450036,39.124757,121.441234,39.120931,1581833243,1581833245,1581840494,1581842700,1581833802,16e2cb9d48d9e9bc1fc68c7a9c1c9227,9e3fc4ec2e0ae22034de94a0efd7c47d
10043801,2,2100075182512178532,正常天气,121.453081,39.131982,121.477004,39.131141,1581833719,1581833720,1581844395,1581847980,1581835220,4659327477130f7ed022cdd54f99071f,403458902a71a455d3feac7e99885b19
10043801,2,2100075189048509889,正常天气,121.457742,39.129966,121.437504,39.121581,1581840286,1581840287,1581840615,1581843766,1581841727,8c7077eb876dad95c5ff7e0ac37dbcaf,1645fa6fbc0fda493b6e0fdd3308f8a1
10043801,2,2100075190163866994,正常天气,121.434986,39.120713,121.456504,39.129401,1581842225,1581842227,1581842355,1581844925,1581843127,b85beb48ac341f17b65ce6102b508bc8,8b5ad70c656b117810340f0a73e02207
10043801,2,2100075190731638348,正常天气,121.433778,39.120198,121.460994,39.135281,1581842462,1581842465,1581842474,1581845402,1581843065,73a233b3c3fa8f9748546594058ae5ce,e778fbef04b78fc4c0952ecf238b8cfa
10043801,2,2100075192850679622,正常天气,121.450036,39.124757,121.452804,39.136391,1581843007,1581843009,1581843016,1581846427,1581844809,df0e09d6f25a15a815563df9827f48fa,9e3fc4ec2e0ae22034de94a0efd7c47d
10043801,2,2100075192679105940,正常天气,121.458602,39.132129,121.481044,39.127721,1581843934,1581843948,1581844095,1581846694,1581844513,4a1001dbbca29028a8f97b201efda8e4,0305949aed62b2b1737f945139420daa
10043801,2,2100075193330894180,正常天气,121.453081,39.131982,121.484634,39.131671,1581844288,1581844589,1581844635,1581847468,1581845728,52c3f1e43f99be2dc6d088903c9fe872,403458902a71a455d3feac7e99885b19
10043801,2,2100075195010058107,正常天气,121.465994,39.128885,121.452264,39.115861,1581845927,1581845930,1581846434,1581849960,1581847430,8596850e4779338717d8dee0f4f2a3ca,e64898cb37384b68168248e1728ef793
10043801,2,2100075196535932353,正常天气,121.457742,39.129966,121.455994,39.125821,1581846530,1581846532,1581846797,1581849050,1581847972,898dd88cca7b2f65461bc491dacb9b25,1645fa6fbc0fda493b6e0fdd3308f8a1
10043801,2,2100075198602314772,正常天气,121.459405,39.125852,121.457114,39.124581,1581848345,1581848526,1581848535,1581851405,1581851045,8dbfee176da77503b2d25087c0f7ef67,21272aafbbd98950ca55f5966fee8358
10043801,2,2100075201358006095,正常天气,121.45496,39.119696,121.456164,39.128031,1581850319,1581850325,1581850394,1581852659,1581851405,dd37b5f39a7e9880e11dd60685741042,4e132580f76eb65c6b83848bf0ec855b
10043801,3,2100075202358478493,正常天气,121.454071,39.131391,121.462504,39.123131,1581852219,1581852221,1581852254,1581854979,1581853661,fc25ab972daf2b55f8670297a164cf33,2a105749194b245dc8fed18134ced7a6
10043801,3,2100075202204665114,正常天气,121.465372,39.124619,121.484434,39.117781,1581853735,1581853736,1581853754,1581855715,1581854336,6ad7d45429d4ffbde92d8eb6b389e41b,e30735d69b4f0ece4bb7b598eb40d3b1
10043801,4,2100075203579086004,正常天气,121.454173,39.131383,121.462174,39.129551,1581856464,1581856464,1581856513,1581858384,1581857064,54734fdab4c1f33c097d822b1a4c50ea,4eb972b3a89a79396790cb6e182b8fdb
10043801,4,2100075204663346747,正常天气,121.462288,39.125596,121.482514,39.117161,1581856881,1581856882,1581857173,1581859221,1581857962,1c9fc916d54b35797babbcc4eeedb084,f1954d8234b513043fc3a3cb65e06698
10053442,0,2100075168162186837,正常天气,121.467333,39.259721,121.465054,39.265791,1581822001,1581822002,1581822009,1581824161,1581823082,2bfdadd6383cd8e5181bf92f8affd0c6,8a405ee414eda4ebff4a329b213b6c59
10053442,0,2100075168903923285,正常天气,121.467333,39.259721,121.451644,39.268771,1581822632,1581822632,1581822789,1581825452,1581823472,57496d70227f4302cd71d44fdcc23cb0,8a405ee414eda4ebff4a329b213b6c59
10053442,0,2100075170922038399,正常天气,121.459128,39.264211,121.460434,39.262951,1581822647,1581822647,1581822669,1581824447,1581823247,0743a6dbfa86a9d07680658cd268461c,7f2f157987120c4474ac99236c7809c3
10053442,0,2100075172223059095,正常天气,121.448929,39.274729,121.448704,39.275751,1581823361,1581823362,1581823569,1581826121,1581824622,2e6059b18ea40b97a7f2bc0bbbcd1512,9f731b880e700c5883929a153c6e67cb
10053442,1,2100075174793971135,正常天气,121.460516,39.251293,121.439664,39.247371,1581827023,1581827023,1581827049,1581830023,1581827923,4958593ff7571e869496f06c835abe9b,bd3e676e6a5fdeb31287d86fa0b2cc28
10053442,1,2100075174804456895,正常天气,121.460516,39.251293,121.458684,39.248071,1581827252,1581827253,1581827289,1581829713,1581828153,c457d7ae48d08a6b84bc0b1b9bd7d474,bd3e676e6a5fdeb31287d86fa0b2cc28
10053442,2,2100075177075836749,正常天气,121.459969,39.251354,121.461084,39.247791,1581829867,1581829867,1581829869,1581831667,1581830407,c457d7ae48d08a6b84bc0b1b9bd7d474,dc3b9f7f5f8cbc59cc53045554ce377b
10053442,2,2100075180442388301,正常天气,121.459969,39.251354,121.473544,39.254951,1581830488,1581830488,1581830529,1581832288,1581831088,4db0f8b0fc895da263fd77fc8aecabe4,dc3b9f7f5f8cbc59cc53045554ce377b
10053442,3,2100075180847761059,正常天气,121.469711,39.25142,121.483504,39.256501,1581831459,1581831460,1581831489,1581833259,1581832540,4f15c1ea3daab2a21a2e62d4140729d5,6392771444bb7a074731a21264c3146c
10053442,3,2100075180258624772,正常天气,121.48326,39.254811,121.472304,39.255651,1581831986,1581831988,1581832028,1581836186,1581832888,0ae7a0c539cb7201637ea2d3395e71e6,5f68bf556ae64a17de68259ebf65a2f3
10053442,4,2100075182852113785,正常天气,121.459106,39.251854,121.458824,39.274911,1581834163,1581834163,1581834188,1581836623,1581834703,a2f5d85defca5e80ee517cbfca50635e,5bb21e5e6d54378db84b19173ea7a1b3
10053442,4,2100075185028990399,正常天气,121.460516,39.251293,121.466394,39.265121,1581834600,1581834601,1581834609,1581837301,1581835501,2bfdadd6383cd8e5181bf92f8affd0c6,bd3e676e6a5fdeb31287d86fa0b2cc28
10053442,4,2100075184423797911,正常天气,121.448929,39.274729,121.458844,39.271291,1581835437,1581835438,1581835508,1581838377,1581836698,3bb62f52a7c6ffad65c31cb62d5adad5,9f731b880e700c5883929a153c6e67cb
10053442,4,2100075184893593494,正常天气,121.461752,39.2714,121.464554,39.268351,1581836382,1581836383,1581836829,1581838242,1581837163,c771714ce4093ac4f5df2a1e781df08c,b801f70e23cf75d0119420e9687753da
10053442,4,2100075185567761485,正常天气,121.462813,39.261319,121.454514,39.266291,1581837064,1581837066,1581837369,1581839524,1581838146,8446debb884fbed2a8a7fc15d4aede66,476ff3dd17dc1e3726bfb3c7ab90c5f9
10053442,4,2100075187335366389,正常天气,121.462867,39.261262,121.461904,39.265411,1581837605,1581837623,1581837669,1581839405,1581838523,caa509f5d28613ce0c4a098ea2ccea55,10a1bf4860b450eca51cbe37576caa16
10053442,5,2100075187733759733,正常天气,121.462867,39.261262,121.456604,39.275191,1581838763,1581838781,1581838964,1581841043,1581840041,a2f5d85defca5e80ee517cbfca50635e,10a1bf4860b450eca51cbe37576caa16
10053442,5,2100075189596161361,正常天气,121.450622,39.272665,121.442634,39.264781,1581840359,1581840361,1581840369,1581843719,1581841081,539a8e284ee675ded5daf017ac0975a3,1b8643ca8e96b4a08820582462758fcf
10053442,6,2100075190602073091,正常天气,121.450916,39.26504,121.468244,39.261041,1581841393,1581841395,1581841448,1581845113,1581842655,8f6ea0b8e21f9c2808922b5a5994ab71,5a5de6cfd113fcacad2bdb317e43bd19
10053442,6,2100075190471788117,正常天气,121.467333,39.259721,121.460164,39.251411,1581842520,1581842521,1581842529,1581844800,1581843301,f28e8a3ef5757a1dcebfa76a37d8b207,8a405ee414eda4ebff4a329b213b6c59
10053442,6,2100075191076488934,正常天气,121.457302,39.257077,121.457824,39.245141,1581843524,1581843526,1581843549,1581847724,1581846226,a208c2644fa4dbf2fdabbb67acb2b4a1,aa70ef1c6442ad84832f727a2da00abf
10053442,7,2100075197801268534,正常天气,121.478035,39.252917,121.473184,39.253361,1581846798,1581846799,1581846849,1581848658,1581847699,59a7282f2d4b127417b62c9ff1fe7252,4aedc52cf1c96688213de48b7fcd51dd
10053442,7,2100075196373894819,正常天气,121.469711,39.25142,121.488844,39.254141,1581847852,1581847853,1581847869,1581850012,1581848393,f71e922325d53fd2607c66188d99589d,6392771444bb7a074731a21264c3146c
10053442,7,2100075197939188871,正常天气,121.480524,39.250251,121.487404,39.253311,1581848115,1581848120,1581848169,1581849915,1581848780,f71e922325d53fd2607c66188d99589d,14fc47775f4812d6f6b8ef57dfa58cb6
10053442,7,2100075197653582983,正常天气,121.480524,39.250251,121.490124,39.252111,1581849048,1581849054,1581849069,1581850908,1581849774,297018ebde10e3024ac70a8120a2c82c,14fc47775f4812d6f6b8ef57dfa58cb6
10063068,0,2100075170161231286,正常天气,121.483856,39.065013,121.503124,39.083771,1581823871,1581823872,1581824254,1581827111,1581824712,d00868ce6fbced7bc16e4aa04a56d9e8,6a890801c663989eb7a4f6eaa095e95a
10063068,0,2100075171172222390,正常天气,121.483856,39.065013,121.489534,39.064931,1581824208,1581824211,1581824262,1581826368,1581825051,b94aa332b0d99397d9f5e44f2f0cd3fe,6a890801c663989eb7a4f6eaa095e95a
10063068,1,2100075167815239415,正常天气,121.479636,39.072151,121.503804,39.087831,1581820129,1581821920,1581821980,1581830929,1581825520,a90d84710a03e116d9d2d70716836394,d760c12c2267518b380218058fe92751
10063068,1,2100075175155140343,正常天气,121.479636,39.072151,121.504044,39.080471,1581823570,1581825357,1581825400,1581834370,1581825550,3326bc003d3801813e13e9687fb520ae,d760c12c2267518b380218058fe92751
10063068,1,2100075177692890238,正常天气,121.483819,39.06463,121.489114,39.071931,1581829976,1581829977,1581830019,1581831896,1581830637,e74f7ed9b51f2cf9c5dc05eb3d60079a,7b22b84bfcae98d151aca378c80c0ae9
10063068,2,2100075193239668470,正常天气,121.472078,39.063704,121.465234,39.060551,1581843780,1581843782,1581843820,1581846120,1581844270,5090b78175f6106c60209584714d1854,b9736654ad3e1a7ae44d23f430cda218
10063068,2,2100075193882707606,正常天气,121.468219,39.064058,121.465564,39.060601,1581844141,1581844147,1581844180,1581846901,1581845047,3c734857837baf9ffe550d6b38ea1a09,3c8c8de41eae807adc7fda1d7e8421c0
10063068,3,2100075194078233921,正常天气,121.468054,39.063566,121.473124,39.067201,1581845980,1581845981,1581846041,1581848020,1581846701,56713eb761b03137507b911e780db4bb,a7f1d264dd3cb3421f0d3747ab109155
10063068,3,2100075197094724771,正常天气,121.473083,39.06736,121.502754,39.063421,1581846295,1581846301,1581846339,1581849715,1581847021,11f6169fc45fca5ec6f29c11fdb6a024,e5795bd94f7714619e597e69bbebdfa7
10063068,3,2100075196523218113,正常天气,121.471546,39.064053,121.491054,39.063071,1581846403,1581846404,1581846460,1581849403,1581847304,06c8c023429b22b2f95e6cf7b90fa0af,5bedbacd032c7253a231920465a82045
10063068,3,2100075197790553528,正常天气,121.479978,39.063414,121.488514,39.062681,1581846435,1581846736,1581846759,1581848955,1581847515,5f6b052b07b50f36307b5e2b39a57188,5b4d536ff087bdfb7a65f8ef3d92126b
10063068,4,2100075200417531006,正常天气,121.483819,39.06463,121.476964,39.055201,1581848951,1581848952,1581848980,1581851291,1581849852,00e36db1515c03a18896943b911d5e7d,7b22b84bfcae98d151aca378c80c0ae9
10063068,4,2100075198696096817,正常天气,121.477749,39.055151,121.470714,39.061791,1581849755,1581849756,1581849760,1581852335,1581849879,db89f406875c1dfdfde3d928b78cd278,9d7954c8ce07bf7544ee881a16e8a6db
10063068,4,2100075199365973197,正常天气,121.48395,39.0646,121.469524,39.061161,1581851440,1581851442,1581851499,1581853900,1581852522,0f8cc1adb7373bc19a9ced9b65edc556,bb69771d5fde6210a7cba6038ae27691
10063068,4,2100075200976586486,正常天气,121.472078,39.063704,121.469584,39.060781,1581852202,1581852205,1581852219,1581854002,1581852805,db89f406875c1dfdfde3d928b78cd278,b9736654ad3e1a7ae44d23f430cda218
10063192,1,2100075172147135926,正常天气,121.483856,39.065013,121.510774,39.067441,1581825429,1581825430,1581825460,1581828669,1581826390,7288251b27c8f0e73f4d7f483b06a785,6a890801c663989eb7a4f6eaa095e95a
10063192,1,2100075174871270526,正常天气,121.483819,39.06463,121.491154,39.065331,1581825641,1581825642,1581825701,1581827801,1581826542,b94aa332b0d99397d9f5e44f2f0cd3fe,7b22b84bfcae98d151aca378c80c0ae9
10063192,2,2100075175715079606,正常天气,121.483856,39.065013,121.497654,39.070191,1581827471,1581827472,1581827500,1581830231,1581828552,594ca7adb3277c51a998252e2d4c906e,6a890801c663989eb7a4f6eaa095e95a
10063192,2,2100075176223671422,正常天气,121.483819,39.06463,121.504514,39.069841,1581827727,1581827728,1581827740,1581830367,1581828628,a0de4f452f88367fb9aebae9dfd6c410,7b22b84bfcae98d151aca378c80c0ae9
10063192,3,2100075195517305982,正常天气,121.483819,39.06463,121.477484,39.067341,1581845399,1581845400,1581845440,1581847979,1581846300,c92897ab11467e64f4ff6dd95897a46e,7b22b84bfcae98d151aca378c80c0ae9
10063192,3,2100075196798731703,正常天气,121.480444,39.063541,121.475994,39.068571,1581846043,1581846043,1581846099,1581848263,1581846763,4ddbb76341e62587f9037cf5ad1de63a,96677b5ebd4a40ec3f5618a57305fd4c
10063192,4,2100075200222561417,正常天气,121.478285,39.065971,121.477194,39.062521,1581849618,1581849621,1581849640,1581851778,1581850701,9725ed8554d47c51465705cd9dca9ed4,69864bde94ef90d4ae3dc7a8d19b49ee
10063192,4,2100075200253297790,正常天气,121.483819,39.06463,121.477834,39.062681,1581849823,1581849824,1581849880,1581852103,1581850724,9725ed8554d47c51465705cd9dca9ed4,7b22b84bfcae98d151aca378c80c0ae9
10063192,4,2100075199303615681,正常天气,121.471546,39.064053,121.501754,39.053191,1581850787,1581850788,1581850839,1581854087,1581851928,51556eecdacd7709e79d08afb24989c6,5bedbacd032c7253a231920465a82045
10063192,4,2100075201482851687,正常天气,121.469886,39.06332,121.486924,39.062151,1581851042,1581851043,1581851079,1581852842,1581851763,5f6b052b07b50f36307b5e2b39a57188,0c4a61b50d52f5e49bb0c851fb366847
10063192,4,2100075201157727990,正常天气,121.472078,39.063704,121.495554,39.065081,1581851424,1581851426,1581851439,1581853644,1581852026,0010faf6abb4eb5430c621528233f91d,b9736654ad3e1a7ae44d23f430cda218
10067592,0,2100075170384479490,正常天气,121.595141,39.207735,121.592554,39.203181,1581823385,1581823387,1581823446,1581827105,1581825187,2cc938757c398e18301d0a2a5f7c5f82,2071adba0cf125db1dcc14562137d5a5
10067592,0,2100075172287252418,正常天气,121.595579,39.208833,121.594644,39.202071,1581823643,1581823643,1581823686,1581826703,1581824363,2522950b30b60dfa57fb5a1b8b56062d,f54e954aa5f79f9187be6770b74ebac4
10067592,0,2100075172043195791,正常天气,121.593345,39.204453,121.592354,39.204391,1581824342,1581824345,1581824406,1581826562,1581825425,595afd21367c7c0beed8f6b55c7413c2,08d351b91b1079d7bbe20fcfd2cfb781
10067592,0,2100075174322079376,正常天气,121.593089,39.203091,121.610444,39.209701,1581825722,1581825723,1581825847,1581830042,1581825992,c9dea8a18313199abe065056d83de13c,bd8bb7b123a026208c5ee128bb454396
10067592,1,2100075177478129203,正常天气,121.594918,39.204036,121.578584,39.229751,1581827761,1581827779,1581827826,1581830521,1581828439,b2e78a4a6d900baf5ab4956d3bb71043,19876c92f3cd2c10fd7d399668a8b467
10067592,1,2100075176864679837,正常天气,121.581789,39.210604,121.582004,39.220421,1581827867,1581827868,1581827886,1581831587,1581829008,740c465e0ff9f87a5a861af851b94f66,d8b87a621f91ac0f87b4ed310472e8ed
10067592,2,2100075194821904314,正常天气,121.597363,39.20749,121.569444,39.209971,1581844452,1581844452,1581844505,1581847212,1581845232,9c00300f5c8776542c9370708d354dc2,76f89e131abc79fa101b500673f080cc
10067592,2,2100075193001805284,正常天气,121.591109,39.208194,121.569354,39.216061,1581844563,1581844565,1581844625,1581847083,1581845465,2abe326c715e57fd40a097d8b298caa0,9365213044f36704f788833712a50fad
10067592,2,2100075193703531839,正常天气,121.569371,39.210247,121.569594,39.217331,1581844836,1581844837,1581844865,1581847236,1581845857,2abe326c715e57fd40a097d8b298caa0,598fa2929172cd4ca4c095c31d9e6e8b
10067592,3,2100075195863795079,正常天气,121.574201,39.213941,121.567724,39.206861,1581846515,1581846517,1581846545,1581850295,1581847957,ff4176ed8f5c011f2e143995268be406,d96405622d4ca20c9d05dd915ec2b9cd
10067592,3,2100075196747285615,正常天气,121.567954,39.206922,121.577644,39.217171,1581848302,1581848303,1581848345,1581851302,1581849203,aeb03fdbe939cea674f5df793ea3e9a6,bc4bff3ef1452078f1ae0fcab2b4b44d
10067592,3,2100075196077212991,正常天气,121.569371,39.210247,121.580414,39.217561,1581848512,1581848513,1581848525,1581850852,1581849593,aeb03fdbe939cea674f5df793ea3e9a6,598fa2929172cd4ca4c095c31d9e6e8b
10067592,3,2100075198232659263,正常天气,121.569371,39.210247,121.584304,39.214511,1581848602,1581848602,1581848646,1581851362,1581849682,7847d86574c9c14bf8427155de0e5b1c,598fa2929172cd4ca4c095c31d9e6e8b
10067592,3,2100075199192041425,正常天气,121.581183,39.211352,121.582604,39.219941,1581849589,1581849595,1581849726,1581852109,1581851035,740c465e0ff9f87a5a861af851b94f66,0b486c154579673652d4bf2aac6ba1a2
100681730,2,2100075179456431428,正常天气,121.589582,39.125074,121.588714,39.128541,1581829825,1581829832,1581829866,1581832825,1581830732,ce38509d6d23a1be9e0d2b412da3ed19,abb09d921dd3e7b8c36b04644b0fcda8
100681730,2,2100075181074286572,正常天气,121.590083,39.130361,121.573184,39.144451,1581831180,1581831181,1581831185,1581834180,1581832441,7ac71d433f282034e088473244df8c02,932ff6b73f1cc749a085d639e918c8c4
100681730,2,2100075180907268063,正常天气,121.57564,39.13856,121.584974,39.140111,1581831871,1581831997,1581832384,1581833731,1581833257,42412c6ce4e7fc04b94c7b391f839013,bd2307c472e921a48aef69ea65a1964c
100681730,3,2100075189873149255,正常天气,121.594353,39.13361,121.590384,39.136191,1581843758,1581843759,1581843784,1581847238,1581845199,470d83a81cbe0ddfb9720cd7c8235204,0ef5976981064f8f741097bd10186748
100681730,3,2100075198444078840,正常天气,121.601105,39.137024,121.567964,39.127321,1581845540,1581847325,1581847385,1581856340,1581847520,4c288646db24fc9dd2bca132daf81bc9,8944ec8db309614c49fc787d3ba12f44
100681730,3,2100075196816983240,正常天气,121.59097,39.137651,121.595964,39.140391,1581845711,1581846196,1581846245,1581847991,1581847151,bc0d3ed3b826c8b11445eb92ee11bc48,e272112bb7eda47e2b30bdb34e0e3a49
100681730,3,2100075196599370952,正常天气,121.59097,39.137651,121.600504,39.141111,1581846624,1581847109,1581847145,1581849264,1581848309,361bbaded03505d969f72963708878e2,e272112bb7eda47e2b30bdb34e0e3a49
100681730,3,2100075199145150200,正常天气,121.601105,39.137024,121.572974,39.124101,1581847432,1581849152,1581849185,1581858172,1581849412,b3dd760eb02d2e669c604f6b2f1e803f,8944ec8db309614c49fc787d3ba12f44
100681730,3,2100075198232921390,正常天气,121.589204,39.131658,121.588214,39.129661,1581848604,1581848605,1581848646,1581851244,1581850405,c6a01432c8138d46ba39957a8250e027,2a3869da31ae6c191322e02cc5efa747
100681730,3,2100075201788249959,正常天气,121.575781,39.122972,121.578424,39.112541,1581851631,1581851632,1581851765,1581854511,1581852712,bcb6d393eb79221d5019cf9576d3a3da,13f54757315c0fbb9212c3c283e25c7e
100681730,4,2100075201891731303,正常天气,121.575781,39.122972,121.569854,39.134781,1581853487,1581853488,1581853504,1581855947,1581854748,c70fc80bd4b1cbf097400fd34ccdf542,13f54757315c0fbb9212c3c283e25c7e
100681730,4,2100075203140813841,正常天气,121.586066,39.130365,121.589124,39.127221,1581854642,1581854648,1581854705,1581856622,1581855298,c4171e3fb5616925e6da2f8fa39e3007,7fe6852b150dfa8c1bf09825b6a06739
10081729,0,2100075162848003763,正常天气,121.539025,39.154215,121.541194,39.157661,1581815058,1581815059,1581815559,1581817218,1581816139,578371802959ecf7f846e21f8727003a,4996b820830326e1e5b9d18c8bf86264
10081729,0,2100075162609518034,正常天气,121.527774,39.1584,121.540934,39.159701,1581816167,1581816169,1581816218,1581819167,1581816889,0d8e91c45c06dcb7c06955c2ef60bb4a,329943c3c502ab9a6222ca529be8bdb7
10081729,0,2100075163483604718,正常天气,121.529931,39.15964,121.559944,39.158671,1581816468,1581816474,1581816518,1581818628,1581817074,50a2eb2a06a292a37da987350e31f5f2,6566433762a2bc7aa9d43b1223da626f
10081729,2,2100075170447427473,正常天气,121.53114,39.151851,121.509154,39.162421,1581823993,1581823994,1581824019,1581827233,1581824894,5585f24905ab8f6d963267ed361f2728,e2a75dc7b9162f6585bb1cd50ceb43eb
10081729,2,2100075172062430391,正常天气,121.523014,39.158907,121.514924,39.158471,1581824496,1581824498,1581824559,1581826416,1581825098,b7e720344a389296d6a4323cdf16f64e,0bcc3dba0d2fcf30a7edbfa514700c12
10081729,3,2100075174708217298,正常天气,121.527774,39.1584,121.533154,39.160301,1581826513,1581826515,1581826539,1581828793,1581827235,9847ad0eef1b983e1b9c077bafcb5972,329943c3c502ab9a6222ca529be8bdb7
10081729,3,2100075176798455450,正常天气,121.532148,39.158962,121.506024,39.163881,1581827318,1581827319,1581827379,1581829778,1581828219,a9ea46e9686468683466dbf06df98b8a,a98ed618ff14e9b7a2e55431cb122647
10094682,0,2100075169623901895,正常天气,121.525063,39.132134,121.539824,39.143691,1581822694,1581822695,1581822739,1581826954,1581824135,c1c175b0d5ea59095736802128cc965e,cbc7bb0e27984e15dc44748102d6596c
10094682,0,2100075171542074744,正常天气,121.524741,39.133671,121.540314,39.138981,1581822823,1581822824,1581822859,1581825343,1581824084,de9fe38ea11f4c7a9e0b089c2b195663,f263e3e4c1256d73a326bc1631afe153
10094682,1,2100075173288150682,正常天气,121.539165,39.13852,121.554914,39.145671,1581825218,1581825218,1581825319,1581828098,1581825507,363fa347bfe520bc9430a5d1b11fe934,ba967b5d527f10377c053396fcbc397e
10094682,1,2100075172721722806,正常天气,121.540073,39.134559,121.555324,39.144151,1581825452,1581825452,1581825499,1581827972,1581826352,d4b7e1f4397a00c53220afa0cf6b2560,10dfdae98308e5b3e621e8dcf2c04d9f
10094682,1,2100075174586779062,正常天气,121.540073,39.134559,121.543624,39.136601,1581825535,1581825535,1581825559,1581827695,1581826435,c6209bc6e40100d51fafac38e1a4b796,10dfdae98308e5b3e621e8dcf2c04d9f
10094682,2,2100075194191611059,正常天气,121.54349,39.127309,121.543714,39.139661,1581844296,1581844298,1581844519,1581846756,1581845378,20d9f3b6b76ad528f795e99389c4c8a2,dcfa26570f57e5278df321d8e431a041
10094682,2,2100075195176518835,正常天气,121.54349,39.127309,121.544584,39.137951,1581845121,1581845124,1581845179,1581847401,1581846204,3e9ae317a07b40a20358f142542084f3,dcfa26570f57e5278df321d8e431a041
10094682,2,2100075194039862549,正常天气,121.546007,39.138564,121.538054,39.112271,1581845694,1581845695,1581845839,1581849054,1581846535,4c4e388607c99c4e6c157f973d8e98cb,6d5cc8cbacf57ee91317c9c930eed607
10094682,2,2100075197448783645,正常天气,121.531154,39.137572,121.538744,39.115521,1581846704,1581846704,1581846739,1581849584,1581847364,1a27b1284bf3feea00f486aaebedc159,c3c9ea1f444a997883e432b400507a1d
10094682,3,2100075199749260627,正常天气,121.524997,39.130304,121.524414,39.125851,1581848769,1581848773,1581849020,1581850989,1581850033,edc20554876dde5e64745c84fa676b0f,55197f793437ec2610d6a5758d024c1b
10094682,3,2100075200711657306,正常天气,121.531284,39.129303,121.515034,39.124941,1581849012,1581849176,1581849259,1581851472,1581849776,34d8ec27bd56094aceb443256bbeea5b,9abbbda872050c52f250190578b0c178
10094682,3,2100075200253789340,正常天气,121.525015,39.126425,121.530214,39.128621,1581849833,1581849834,1581849979,1581851873,1581850554,2210d566b9960890d3f44cb87982ef63,741f9001ada952e786f1b3533d4f4ab8
10094682,3,2100075200660440440,正常天气,121.524741,39.133671,121.550854,39.136661,1581851269,1581851270,1581851299,1581853729,1581852530,6aa1d942f337803134c6f5e00909bbc6,f263e3e4c1256d73a326bc1631afe153
10097074,0,2100075180471092753,正常天气,121.285818,39.140872,121.283394,39.143121,1581830804,1581830805,1581830824,1581832664,1581831705,c995d4ff5d4b638c15b7e94b6c3491f9,aa7e675ceed8248ff6f0ec4dbe656e25
10097074,0,2100075179600839917,正常天气,121.286566,39.140859,121.298634,39.135271,1581830996,1581830997,1581831304,1581832916,1581831657,3edc7f195e11e73602999dd1d285bbaa,365c6d6bbf2ebc523622201faa4e0f9a
10097074,1,2100075177664644399,正常天气,121.291695,39.130256,121.316194,39.154711,1581829789,1581829791,1581833524,1581836400,1581831291,cd7e3d925d7dee727c6cf5f9b72d5865,f4ac54ee549f34ebb0e0cb221f6d17f2
10097074,1,2100075182396540881,正常天气,121.304536,39.135544,121.298514,39.124081,1581832427,1581832433,1581832444,1581834587,1581833153,b6297327d50fdc1d2f16a3ed500b7398,7663a0fc5618e26a733ae5bbe13724f0
10097074,1,2100075180957729995,正常天气,121.290046,39.12839,121.296994,39.127761,1581832724,1581832727,1581832744,1581835004,1581833627,24e19583be4fc0a3998cb4ccd99c7c36,1cdbded8b9b1b6e8592d2cf79f7968bd
10097074,1,2100075183408022634,正常天气,121.312014,39.132891,121.320964,39.146041,1581833738,1581833741,1581833764,1581836198,1581834461,63af5bcca958a1bba081e443bc87af66,019a0ac855f7e0e6a23bacf229811a9d
10097074,2,2100075186279253184,正常天气,121.311854,39.135861,121.317214,39.151371,1581835708,1581835713,1581835984,1581838648,1581837513,b77474951e8c158d1fc2ab5757feb508,d38473a7b7ab6d584259cd585ceb1a94
10097074,2,2100075184870557291,正常天气,121.311534,39.133902,121.314924,39.149811,1581836181,1581836183,1581836224,1581838521,1581837023,c6adfd37f117df055779a877c67f4adc,0fdf52eaae4827120e3decfb408c4e51
10097074,3,2100075186744755810,正常天气,121.30006,39.132982,121.306134,39.149591,1581838713,1581838714,1581838744,1581840873,1581839254,3a185e7e98ea59f13692947958d75137,4bf93717dc5c0f1fa8c93363f45ef645
10097074,3,2100075186766939578,正常天气,121.291109,39.13303,121.301414,39.148791,1581838944,1581838946,1581838984,1581843264,1581841346,463bdd01b9982902296edd2cb3faaf6d,4db2d52249ed6a55771d4238b01c534e
10097074,3,2100075189999830234,正常天气,121.286044,39.140901,121.307934,39.145781,1581841030,1581841032,1581841084,1581843730,1581842292,692796bbccafa895fc4f14db1575899c,0f39b31e6383e4c159af0b04afc9ba39
10097074,4,2100075191025043386,正常天气,121.304914,39.124621,121.294654,39.147181,1581842771,1581842772,1581842824,1581845832,1581843552,1d64d6eef00280ffba6bef07ccd06bd0,a6ac6561fc5e4c898944771f478e4a1a
10097074,4,2100075192010409743,正常天气,121.303372,39.128609,121.304754,39.130931,1581842942,1581842942,1581842945,1581845102,1581843482,a38c53f867c6386cc81cd1f624de3905,cf14079a6f23c7a971237ce4b133e72d
10098837,0,2100075161123948156,正常天气,121.429085,39.197715,121.436894,39.190891,1581782118,1581783904,1581818970,1581821100,1581785404,63a735e5f7a69f1b88e40bb645a37818,406a47750b2960d4666f4dc63f704d9f
10098837,0,2100075162570950268,正常天气,121.429085,39.197715,121.447804,39.192091,1581813967,1581815763,1581818551,1581821100,1581817263,3f8542ee08c85aa3192795a37185bd52,406a47750b2960d4666f4dc63f704d9f
10098837,0,2100075164716205692,正常天气,121.429085,39.197715,121.431534,39.198061,1581814096,1581815867,1581819210,1581821100,1581817367,00f4fc5c31a7b7c484b742cb24e2613c,406a47750b2960d4666f4dc63f704d9f
10098837,1,2100075160139433596,正常天气,121.429085,39.197715,121.452024,39.195581,1581777645,1581779362,1581825570,1581828300,1581780862,a8eff6305a0e6743767c74466a225c43,406a47750b2960d4666f4dc63f704d9f
10098837,1,2100075161957009020,正常天气,121.429085,39.197715,121.439794,39.193421,1581811078,1581812860,1581825930,1581828300,1581814360,8f3e4101d20684f7ea24b4998192b22f,406a47750b2960d4666f4dc63f704d9f
10098837,2,2100075177208153724,正常天气,121.429085,39.197715,121.441484,39.190431,1581826755,1581828520,1581828570,1581837495,1581828555,682bcd223d93764cd15800487be65f03,406a47750b2960d4666f4dc63f704d9f
10098837,2,2100075178263709308,正常天气,121.429085,39.197715,121.437034,39.192971,1581827169,1581828947,1581828989,1581837969,1581828969,69436d4ae309d5078cc59b68964d9671,406a47750b2960d4666f4dc63f704d9f
10098837,4,2100075190916286076,正常天气,121.429085,39.197715,121.409804,39.187991,1581839663,1581841456,1581841469,1581850463,1581847456,9b51a75a0f750ba340a0d76a55898712,406a47750b2960d4666f4dc63f704d9f
10098837,4,2100075190628058748,正常天气,121.429085,39.197715,121.416894,39.189231,1581839741,1581841523,1581841529,1581850541,1581847523,19271b1628fda2248bf1a550fb159a83,406a47750b2960d4666f4dc63f704d9f
10098837,5,2100075192934008444,正常天气,121.429085,39.197715,121.421874,39.182901,1581842159,1581843952,1581843988,1581852959,1581843959,fa4da0e0d28ec626f9152d6d8d91a8fb,406a47750b2960d4666f4dc63f704d9f
10098837,5,2100075194858702627,正常天气,121.427563,39.196985,121.422834,39.182611,1581844776,1581844777,1581844830,1581847836,1581845617,5d313581812eee837c64189da109fef4,5e46d6c6102392d196f0dd9f4eed355b
10098837,5,2100075193704089355,正常天气,121.424964,39.197011,121.418854,39.196731,1581844840,1581844842,1581844889,1581846820,1581845562,2104b5d1230220b247fdff9d1a7d1f93,3e1633b07c679495f504ba03cb5b8cc1
10100267,0,2100075131186545890,极恶劣天气,121.415338,39.271783,121.422024,39.283191,1581740081,1581740107,1581814204,1581816600,1581741607,7dea9c0b27b0b798974e373e0aa418d0,f8020d049a802212dcc98764a67f0cf8
10100267,0,2100075162871661719,正常天气,121.426364,39.286036,121.427384,39.259451,1581815410,1581815411,1581815584,1581818950,1581816311,4bf3ce56ca8f5efe880002fc3d9f1246,1eb2108c37435fe3d745a3e066f3ab0a
10100267,0,2100075163741914940,正常天气,121.427848,39.283293,121.428194,39.282761,1581815585,1581815602,1581815643,1581818105,1581816322,44e4c020427bcb69f97f81f120e918d5,f6dc109f65fd10757274159fcce647d4
10100267,0,2100075164500657613,正常天气,121.418884,39.261171,121.431664,39.256901,1581816975,1581817326,1581817683,1581820200,1581818826,4d43a5ee2fb8d68851d000abe17c3f13,6c60406060769bc4e2ec1468a81ebe5a
10100267,1,2100075170609169953,正常天气,121.418892,39.261166,121.396574,39.262031,1581822913,1581822922,1581822964,1581825553,1581823702,ce4f0d66f80785f396ee7b56ff98f702,95c23d2c60655cd0854badeeee2da105
10100267,1,2100075171587589665,正常天气,121.418892,39.261166,121.396954,39.262331,1581823128,1581823133,1581823144,1581825648,1581823913,ce4f0d66f80785f396ee7b56ff98f702,95c23d2c60655cd0854badeeee2da105
10100267,1,2100075170090681947,正常天气,121.415183,39.261474,121.396454,39.262051,1581823186,1581823213,1581823265,1581825766,1581823933,ce4f0d66f80785f396ee7b56ff98f702,25c2e77634d9706eb5fd21d612aaf296
